[
  {
    "id": 1,
    "comune": "Agliè",
    "istat": "1001",
    "latitude": 45.36343304,
    "longitude": 7.7686,
    "position_hash": null
  },
  {
    "id": 2,
    "comune": "Airasca",
    "istat": "1002",
    "latitude": 44.91688598,
    "longitude": 7.48443104,
    "position_hash": null
  },
  {
    "id": 3,
    "comune": "Ala di Stura",
    "istat": "1003",
    "latitude": 45.31511014,
    "longitude": 7.30434392,
    "position_hash": null
  },
  {
    "id": 4,
    "comune": "Albiano d'Ivrea",
    "istat": "1004",
    "latitude": 45.43389336,
    "longitude": 7.94914491,
    "position_hash": null
  },
  {
    "id": 5,
    "comune": "Alice Superiore",
    "istat": "1005",
    "latitude": 45.4600936,
    "longitude": 7.77701858,
    "position_hash": null
  },
  {
    "id": 6,
    "comune": "Almese",
    "istat": "1006",
    "latitude": 45.11766321,
    "longitude": 7.39518194,
    "position_hash": null
  },
  {
    "id": 7,
    "comune": "Alpette",
    "istat": "1007",
    "latitude": 45.40998223,
    "longitude": 7.57859732,
    "position_hash": null
  },
  {
    "id": 8,
    "comune": "Alpignano",
    "istat": "1008",
    "latitude": 45.09446973,
    "longitude": 7.52426733,
    "position_hash": null
  },
  {
    "id": 9,
    "comune": "Andezeno",
    "istat": "1009",
    "latitude": 45.03586095,
    "longitude": 7.86994864,
    "position_hash": null
  },
  {
    "id": 10,
    "comune": "Andrate",
    "istat": "1010",
    "latitude": 45.52837479,
    "longitude": 7.87383937,
    "position_hash": null
  },
  {
    "id": 11,
    "comune": "Angrogna",
    "istat": "1011",
    "latitude": 44.84344991,
    "longitude": 7.22429215,
    "position_hash": null
  },
  {
    "id": 12,
    "comune": "Arignano",
    "istat": "1012",
    "latitude": 45.04402899,
    "longitude": 7.90244635,
    "position_hash": null
  },
  {
    "id": 13,
    "comune": "Avigliana",
    "istat": "1013",
    "latitude": 45.07935742,
    "longitude": 7.39632339,
    "position_hash": null
  },
  {
    "id": 14,
    "comune": "Azeglio",
    "istat": "1014",
    "latitude": 45.4248619,
    "longitude": 7.9947707,
    "position_hash": null
  },
  {
    "id": 15,
    "comune": "Bairo",
    "istat": "1015",
    "latitude": 45.38624929,
    "longitude": 7.75691809,
    "position_hash": null
  },
  {
    "id": 16,
    "comune": "Balangero",
    "istat": "1016",
    "latitude": 45.27003001,
    "longitude": 7.51930957,
    "position_hash": null
  },
  {
    "id": 17,
    "comune": "Baldissero Canavese",
    "istat": "1017",
    "latitude": 45.40840358,
    "longitude": 7.74444451,
    "position_hash": null
  },
  {
    "id": 18,
    "comune": "Baldissero Torinese",
    "istat": "1018",
    "latitude": 45.06842334,
    "longitude": 7.81780767,
    "position_hash": null
  },
  {
    "id": 19,
    "comune": "Balme",
    "istat": "1019",
    "latitude": 45.30229406,
    "longitude": 7.21831414,
    "position_hash": null
  },
  {
    "id": 20,
    "comune": "Banchette",
    "istat": "1020",
    "latitude": 45.4608501,
    "longitude": 7.85656384,
    "position_hash": null
  },
  {
    "id": 21,
    "comune": "Barbania",
    "istat": "1021",
    "latitude": 45.2905002,
    "longitude": 7.63051093,
    "position_hash": null
  },
  {
    "id": 22,
    "comune": "Bardonecchia",
    "istat": "1022",
    "latitude": 45.07816901,
    "longitude": 6.70382393,
    "position_hash": null
  },
  {
    "id": 23,
    "comune": "Barone Canavese",
    "istat": "1023",
    "latitude": 45.32772558,
    "longitude": 7.87055626,
    "position_hash": null
  },
  {
    "id": 24,
    "comune": "Beinasco",
    "istat": "1024",
    "latitude": 45.02207899,
    "longitude": 7.57915804,
    "position_hash": null
  },
  {
    "id": 25,
    "comune": "Bibiana",
    "istat": "1025",
    "latitude": 44.79758015,
    "longitude": 7.28978596,
    "position_hash": null
  },
  {
    "id": 26,
    "comune": "Bobbio Pellice",
    "istat": "1026",
    "latitude": 44.80770617,
    "longitude": 7.11790449,
    "position_hash": null
  },
  {
    "id": 27,
    "comune": "Bollengo",
    "istat": "1027",
    "latitude": 45.4733572,
    "longitude": 7.94534881,
    "position_hash": null
  },
  {
    "id": 28,
    "comune": "Borgaro Torinese",
    "istat": "1028",
    "latitude": 45.15198241,
    "longitude": 7.65789441,
    "position_hash": null
  },
  {
    "id": 29,
    "comune": "Borgiallo",
    "istat": "1029",
    "latitude": 45.4168132,
    "longitude": 7.66773369,
    "position_hash": null
  },
  {
    "id": 30,
    "comune": "Borgofranco d'Ivrea",
    "istat": "1030",
    "latitude": 45.51300686,
    "longitude": 7.85852209,
    "position_hash": null
  },
  {
    "id": 31,
    "comune": "Borgomasino",
    "istat": "1031",
    "latitude": 45.36155134,
    "longitude": 7.98879962,
    "position_hash": null
  },
  {
    "id": 32,
    "comune": "Borgone Susa",
    "istat": "1032",
    "latitude": 45.12313936,
    "longitude": 7.24121397,
    "position_hash": null
  },
  {
    "id": 33,
    "comune": "Bosconero",
    "istat": "1033",
    "latitude": 45.26856393,
    "longitude": 7.76506984,
    "position_hash": null
  },
  {
    "id": 34,
    "comune": "Brandizzo",
    "istat": "1034",
    "latitude": 45.17765247,
    "longitude": 7.84147562,
    "position_hash": null
  },
  {
    "id": 35,
    "comune": "Bricherasio",
    "istat": "1035",
    "latitude": 44.82558164,
    "longitude": 7.30288754,
    "position_hash": null
  },
  {
    "id": 36,
    "comune": "Brosso",
    "istat": "1036",
    "latitude": 45.49276005,
    "longitude": 7.80333443,
    "position_hash": null
  },
  {
    "id": 37,
    "comune": "Brozolo",
    "istat": "1037",
    "latitude": 45.1174193,
    "longitude": 8.07127843,
    "position_hash": null
  },
  {
    "id": 38,
    "comune": "Bruino",
    "istat": "1038",
    "latitude": 45.0202325,
    "longitude": 7.46769111,
    "position_hash": null
  },
  {
    "id": 39,
    "comune": "Brusasco",
    "istat": "1039",
    "latitude": 45.15595512,
    "longitude": 8.06009417,
    "position_hash": null
  },
  {
    "id": 40,
    "comune": "Bruzolo",
    "istat": "1040",
    "latitude": 45.14312487,
    "longitude": 7.19397692,
    "position_hash": null
  },
  {
    "id": 41,
    "comune": "Buriasco",
    "istat": "1041",
    "latitude": 44.87335846,
    "longitude": 7.41192286,
    "position_hash": null
  },
  {
    "id": 42,
    "comune": "Burolo",
    "istat": "1042",
    "latitude": 45.48411969,
    "longitude": 7.93205672,
    "position_hash": null
  },
  {
    "id": 43,
    "comune": "Busano",
    "istat": "1043",
    "latitude": 45.32883648,
    "longitude": 7.6557437,
    "position_hash": null
  },
  {
    "id": 44,
    "comune": "Bussoleno",
    "istat": "1044",
    "latitude": 45.13727952,
    "longitude": 7.14931876,
    "position_hash": null
  },
  {
    "id": 45,
    "comune": "Buttigliera Alta",
    "istat": "1045",
    "latitude": 45.06701514,
    "longitude": 7.43678073,
    "position_hash": null
  },
  {
    "id": 46,
    "comune": "Cafasse",
    "istat": "1046",
    "latitude": 45.24471151,
    "longitude": 7.51812356,
    "position_hash": null
  },
  {
    "id": 47,
    "comune": "Caluso",
    "istat": "1047",
    "latitude": 45.30786205,
    "longitude": 7.89150532,
    "position_hash": null
  },
  {
    "id": 48,
    "comune": "Cambiano",
    "istat": "1048",
    "latitude": 44.9734596,
    "longitude": 7.77932471,
    "position_hash": null
  },
  {
    "id": 49,
    "comune": "Campiglione Fenile",
    "istat": "1049",
    "latitude": 44.8021244,
    "longitude": 7.32503803,
    "position_hash": null
  },
  {
    "id": 50,
    "comune": "Candia Canavese",
    "istat": "1050",
    "latitude": 45.32816809,
    "longitude": 7.8866125,
    "position_hash": null
  },
  {
    "id": 51,
    "comune": "Candiolo",
    "istat": "1051",
    "latitude": 44.96026547,
    "longitude": 7.60121104,
    "position_hash": null
  },
  {
    "id": 52,
    "comune": "Canischio",
    "istat": "1052",
    "latitude": 45.37434585,
    "longitude": 7.59521831,
    "position_hash": null
  },
  {
    "id": 53,
    "comune": "Cantalupa",
    "istat": "1053",
    "latitude": 44.94030975,
    "longitude": 7.33260383,
    "position_hash": null
  },
  {
    "id": 54,
    "comune": "Cantoira",
    "istat": "1054",
    "latitude": 45.34323553,
    "longitude": 7.38167977,
    "position_hash": null
  },
  {
    "id": 55,
    "comune": "Caprie",
    "istat": "1055",
    "latitude": 45.11786515,
    "longitude": 7.33250655,
    "position_hash": null
  },
  {
    "id": 56,
    "comune": "Caravino",
    "istat": "1056",
    "latitude": 45.39860532,
    "longitude": 7.9602136,
    "position_hash": null
  },
  {
    "id": 57,
    "comune": "Carema",
    "istat": "1057",
    "latitude": 45.58444747,
    "longitude": 7.81230448,
    "position_hash": null
  },
  {
    "id": 58,
    "comune": "Carignano",
    "istat": "1058",
    "latitude": 44.90666664,
    "longitude": 7.67534298,
    "position_hash": null
  },
  {
    "id": 59,
    "comune": "Carmagnola",
    "istat": "1059",
    "latitude": 44.84654865,
    "longitude": 7.71815745,
    "position_hash": null
  },
  {
    "id": 60,
    "comune": "Casalborgone",
    "istat": "1060",
    "latitude": 45.1299627,
    "longitude": 7.94044052,
    "position_hash": null
  },
  {
    "id": 61,
    "comune": "Cascinette d'Ivrea",
    "istat": "1061",
    "latitude": 45.47845422,
    "longitude": 7.90469845,
    "position_hash": null
  },
  {
    "id": 62,
    "comune": "Caselette",
    "istat": "1062",
    "latitude": 45.10588105,
    "longitude": 7.48320717,
    "position_hash": null
  },
  {
    "id": 63,
    "comune": "Caselle Torinese",
    "istat": "1063",
    "latitude": 45.17716554,
    "longitude": 7.64818634,
    "position_hash": null
  },
  {
    "id": 64,
    "comune": "Castagneto Po",
    "istat": "1064",
    "latitude": 45.16060833,
    "longitude": 7.88698844,
    "position_hash": null
  },
  {
    "id": 65,
    "comune": "Castagnole Piemonte",
    "istat": "1065",
    "latitude": 44.8986196,
    "longitude": 7.56655619,
    "position_hash": null
  },
  {
    "id": 66,
    "comune": "Castellamonte",
    "istat": "1066",
    "latitude": 45.3833354,
    "longitude": 7.70986533,
    "position_hash": null
  },
  {
    "id": 67,
    "comune": "Castelnuovo Nigra",
    "istat": "1067",
    "latitude": 45.43732305,
    "longitude": 7.69511431,
    "position_hash": null
  },
  {
    "id": 68,
    "comune": "Castiglione Torinese",
    "istat": "1068",
    "latitude": 45.12330917,
    "longitude": 7.8160937,
    "position_hash": null
  },
  {
    "id": 69,
    "comune": "Cavagnolo",
    "istat": "1069",
    "latitude": 45.15207451,
    "longitude": 8.05131021,
    "position_hash": null
  },
  {
    "id": 70,
    "comune": "Cavour",
    "istat": "1070",
    "latitude": 44.78403126,
    "longitude": 7.37523198,
    "position_hash": null
  },
  {
    "id": 71,
    "comune": "Cercenasco",
    "istat": "1071",
    "latitude": 44.86126074,
    "longitude": 7.50125803,
    "position_hash": null
  },
  {
    "id": 72,
    "comune": "Ceres",
    "istat": "1072",
    "latitude": 45.31307899,
    "longitude": 7.38934335,
    "position_hash": null
  },
  {
    "id": 73,
    "comune": "Ceresole Reale",
    "istat": "1073",
    "latitude": 45.43261794,
    "longitude": 7.23254114,
    "position_hash": null
  },
  {
    "id": 74,
    "comune": "Cesana Torinese",
    "istat": "1074",
    "latitude": 44.95241086,
    "longitude": 6.79422776,
    "position_hash": null
  },
  {
    "id": 75,
    "comune": "Chialamberto",
    "istat": "1075",
    "latitude": 45.36285948,
    "longitude": 7.34570078,
    "position_hash": null
  },
  {
    "id": 76,
    "comune": "Chianocco",
    "istat": "1076",
    "latitude": 45.1485858,
    "longitude": 7.16939346,
    "position_hash": null
  },
  {
    "id": 77,
    "comune": "Chiaverano",
    "istat": "1077",
    "latitude": 45.49939701,
    "longitude": 7.90312753,
    "position_hash": null
  },
  {
    "id": 78,
    "comune": "Chieri",
    "istat": "1078",
    "latitude": 45.01315317,
    "longitude": 7.82107157,
    "position_hash": null
  },
  {
    "id": 79,
    "comune": "Chiesanuova",
    "istat": "1079",
    "latitude": 45.41780821,
    "longitude": 7.65605931,
    "position_hash": null
  },
  {
    "id": 80,
    "comune": "Chiomonte",
    "istat": "1080",
    "latitude": 45.11938583,
    "longitude": 6.98338614,
    "position_hash": null
  },
  {
    "id": 81,
    "comune": "Chiusa di San Michele",
    "istat": "1081",
    "latitude": 45.10154711,
    "longitude": 7.3264449,
    "position_hash": null
  },
  {
    "id": 82,
    "comune": "Chivasso",
    "istat": "1082",
    "latitude": 45.18855522,
    "longitude": 7.8871395,
    "position_hash": null
  },
  {
    "id": 83,
    "comune": "Ciconio",
    "istat": "1083",
    "latitude": 45.33032199,
    "longitude": 7.75987216,
    "position_hash": null
  },
  {
    "id": 84,
    "comune": "Cintano",
    "istat": "1084",
    "latitude": 45.42805026,
    "longitude": 7.68662115,
    "position_hash": null
  },
  {
    "id": 85,
    "comune": "Cinzano",
    "istat": "1085",
    "latitude": 45.09389859,
    "longitude": 7.92112148,
    "position_hash": null
  },
  {
    "id": 86,
    "comune": "Ciriè",
    "istat": "1086",
    "latitude": 45.23202337,
    "longitude": 7.60378213,
    "position_hash": null
  },
  {
    "id": 87,
    "comune": "Claviere",
    "istat": "1087",
    "latitude": 44.93861812,
    "longitude": 6.7493063,
    "position_hash": null
  },
  {
    "id": 88,
    "comune": "Coassolo Torinese",
    "istat": "1088",
    "latitude": 45.30071349,
    "longitude": 7.46132937,
    "position_hash": null
  },
  {
    "id": 89,
    "comune": "Coazze",
    "istat": "1089",
    "latitude": 45.05141806,
    "longitude": 7.29464354,
    "position_hash": null
  },
  {
    "id": 90,
    "comune": "Collegno",
    "istat": "1090",
    "latitude": 45.07740152,
    "longitude": 7.56912947,
    "position_hash": null
  },
  {
    "id": 91,
    "comune": "Colleretto Castelnuovo",
    "istat": "1091",
    "latitude": 45.42140642,
    "longitude": 7.67898169,
    "position_hash": null
  },
  {
    "id": 92,
    "comune": "Colleretto Giacosa",
    "istat": "1092",
    "latitude": 45.43288813,
    "longitude": 7.79996443,
    "position_hash": null
  },
  {
    "id": 93,
    "comune": "Condove",
    "istat": "1093",
    "latitude": 45.11714338,
    "longitude": 7.31072991,
    "position_hash": null
  },
  {
    "id": 94,
    "comune": "Corio",
    "istat": "1094",
    "latitude": 45.31274311,
    "longitude": 7.53256155,
    "position_hash": null
  },
  {
    "id": 95,
    "comune": "Cossano Canavese",
    "istat": "1095",
    "latitude": 45.38833099,
    "longitude": 7.99337324,
    "position_hash": null
  },
  {
    "id": 96,
    "comune": "Cuceglio",
    "istat": "1096",
    "latitude": 45.35892893,
    "longitude": 7.81484395,
    "position_hash": null
  },
  {
    "id": 97,
    "comune": "Cumiana",
    "istat": "1097",
    "latitude": 44.98279566,
    "longitude": 7.37437677,
    "position_hash": null
  },
  {
    "id": 98,
    "comune": "Cuorgnè",
    "istat": "1098",
    "latitude": 45.39122707,
    "longitude": 7.64891501,
    "position_hash": null
  },
  {
    "id": 99,
    "comune": "Druento",
    "istat": "1099",
    "latitude": 45.13473277,
    "longitude": 7.57620424,
    "position_hash": null
  },
  {
    "id": 100,
    "comune": "Exilles",
    "istat": "1100",
    "latitude": 45.09749088,
    "longitude": 6.9296242,
    "position_hash": null
  },
  {
    "id": 101,
    "comune": "Favria",
    "istat": "1101",
    "latitude": 45.33284709,
    "longitude": 7.68801437,
    "position_hash": null
  },
  {
    "id": 102,
    "comune": "Feletto",
    "istat": "1102",
    "latitude": 45.30549111,
    "longitude": 7.747108,
    "position_hash": null
  },
  {
    "id": 103,
    "comune": "Fenestrelle",
    "istat": "1103",
    "latitude": 45.03429618,
    "longitude": 7.05188671,
    "position_hash": null
  },
  {
    "id": 104,
    "comune": "Fiano",
    "istat": "1104",
    "latitude": 45.21812133,
    "longitude": 7.51978357,
    "position_hash": null
  },
  {
    "id": 105,
    "comune": "Fiorano Canavese",
    "istat": "1105",
    "latitude": 45.46756986,
    "longitude": 7.82897738,
    "position_hash": null
  },
  {
    "id": 106,
    "comune": "Foglizzo",
    "istat": "1106",
    "latitude": 45.27201738,
    "longitude": 7.82317874,
    "position_hash": null
  },
  {
    "id": 107,
    "comune": "Forno Canavese",
    "istat": "1107",
    "latitude": 45.34683712,
    "longitude": 7.58678049,
    "position_hash": null
  },
  {
    "id": 108,
    "comune": "Frassinetto",
    "istat": "1108",
    "latitude": 45.43603247,
    "longitude": 7.60567906,
    "position_hash": null
  },
  {
    "id": 109,
    "comune": "Front",
    "istat": "1109",
    "latitude": 45.2795507,
    "longitude": 7.66559657,
    "position_hash": null
  },
  {
    "id": 110,
    "comune": "Frossasco",
    "istat": "1110",
    "latitude": 44.93362239,
    "longitude": 7.35077043,
    "position_hash": null
  },
  {
    "id": 111,
    "comune": "Garzigliana",
    "istat": "1111",
    "latitude": 44.83677569,
    "longitude": 7.37473116,
    "position_hash": null
  },
  {
    "id": 112,
    "comune": "Gassino Torinese",
    "istat": "1112",
    "latitude": 45.1274528,
    "longitude": 7.8248966,
    "position_hash": null
  },
  {
    "id": 113,
    "comune": "Germagnano",
    "istat": "1113",
    "latitude": 45.26218096,
    "longitude": 7.46686447,
    "position_hash": null
  },
  {
    "id": 114,
    "comune": "Giaglione",
    "istat": "1114",
    "latitude": 45.13968801,
    "longitude": 7.01413849,
    "position_hash": null
  },
  {
    "id": 115,
    "comune": "Giaveno",
    "istat": "1115",
    "latitude": 45.04475307,
    "longitude": 7.35308652,
    "position_hash": null
  },
  {
    "id": 116,
    "comune": "Givoletto",
    "istat": "1116",
    "latitude": 45.15877935,
    "longitude": 7.49677295,
    "position_hash": null
  },
  {
    "id": 117,
    "comune": "Gravere",
    "istat": "1117",
    "latitude": 45.1239184,
    "longitude": 7.02107286,
    "position_hash": null
  },
  {
    "id": 118,
    "comune": "Groscavallo",
    "istat": "1118",
    "latitude": 45.36895345,
    "longitude": 7.28229522,
    "position_hash": null
  },
  {
    "id": 119,
    "comune": "Grosso",
    "istat": "1119",
    "latitude": 45.25636722,
    "longitude": 7.55663354,
    "position_hash": null
  },
  {
    "id": 120,
    "comune": "Grugliasco",
    "istat": "1120",
    "latitude": 45.06211095,
    "longitude": 7.57780057,
    "position_hash": null
  },
  {
    "id": 121,
    "comune": "Ingria",
    "istat": "1121",
    "latitude": 45.46629106,
    "longitude": 7.57086278,
    "position_hash": null
  },
  {
    "id": 122,
    "comune": "Inverso Pinasca",
    "istat": "1122",
    "latitude": 44.94722972,
    "longitude": 7.21596397,
    "position_hash": null
  },
  {
    "id": 123,
    "comune": "Isolabella",
    "istat": "1123",
    "latitude": 44.90664468,
    "longitude": 7.90926775,
    "position_hash": null
  },
  {
    "id": 124,
    "comune": "Issiglio",
    "istat": "1124",
    "latitude": 45.44680942,
    "longitude": 7.75416284,
    "position_hash": null
  },
  {
    "id": 125,
    "comune": "Ivrea",
    "istat": "1125",
    "latitude": 45.46618879,
    "longitude": 7.87596694,
    "position_hash": null
  },
  {
    "id": 126,
    "comune": "La Cassa",
    "istat": "1126",
    "latitude": 45.18182357,
    "longitude": 7.51913001,
    "position_hash": null
  },
  {
    "id": 127,
    "comune": "La Loggia",
    "istat": "1127",
    "latitude": 44.9566781,
    "longitude": 7.66770716,
    "position_hash": null
  },
  {
    "id": 128,
    "comune": "Lanzo Torinese",
    "istat": "1128",
    "latitude": 45.27231992,
    "longitude": 7.4766156,
    "position_hash": null
  },
  {
    "id": 129,
    "comune": "Lauriano",
    "istat": "1129",
    "latitude": 45.15845502,
    "longitude": 7.99166951,
    "position_hash": null
  },
  {
    "id": 130,
    "comune": "Leini",
    "istat": "1130",
    "latitude": 45.18393696,
    "longitude": 7.71510758,
    "position_hash": null
  },
  {
    "id": 131,
    "comune": "Lemie",
    "istat": "1131",
    "latitude": 45.2285566,
    "longitude": 7.29288179,
    "position_hash": null
  },
  {
    "id": 132,
    "comune": "Lessolo",
    "istat": "1132",
    "latitude": 45.47615621,
    "longitude": 7.81421978,
    "position_hash": null
  },
  {
    "id": 133,
    "comune": "Levone",
    "istat": "1133",
    "latitude": 45.31810409,
    "longitude": 7.60590068,
    "position_hash": null
  },
  {
    "id": 134,
    "comune": "Locana",
    "istat": "1134",
    "latitude": 45.41699254,
    "longitude": 7.46126241,
    "position_hash": null
  },
  {
    "id": 135,
    "comune": "Lombardore",
    "istat": "1135",
    "latitude": 45.23570752,
    "longitude": 7.73626699,
    "position_hash": null
  },
  {
    "id": 136,
    "comune": "Lombriasco",
    "istat": "1136",
    "latitude": 44.84160233,
    "longitude": 7.6357787,
    "position_hash": null
  },
  {
    "id": 137,
    "comune": "Loranzè",
    "istat": "1137",
    "latitude": 45.44223125,
    "longitude": 7.8108711,
    "position_hash": null
  },
  {
    "id": 138,
    "comune": "Lugnacco",
    "istat": "1138",
    "latitude": 45.44465477,
    "longitude": 7.7806447,
    "position_hash": null
  },
  {
    "id": 139,
    "comune": "Luserna San Giovanni",
    "istat": "1139",
    "latitude": 44.81432177,
    "longitude": 7.24579065,
    "position_hash": null
  },
  {
    "id": 140,
    "comune": "Lusernetta",
    "istat": "1140",
    "latitude": 44.8023662,
    "longitude": 7.25023582,
    "position_hash": null
  },
  {
    "id": 141,
    "comune": "Lusigliè",
    "istat": "1141",
    "latitude": 45.31856534,
    "longitude": 7.76646663,
    "position_hash": null
  },
  {
    "id": 142,
    "comune": "Macello",
    "istat": "1142",
    "latitude": 44.85117887,
    "longitude": 7.40079259,
    "position_hash": null
  },
  {
    "id": 143,
    "comune": "Maglione",
    "istat": "1143",
    "latitude": 45.34770337,
    "longitude": 8.01174454,
    "position_hash": null
  },
  {
    "id": 144,
    "comune": "Marentino",
    "istat": "1144",
    "latitude": 45.05800482,
    "longitude": 7.87332971,
    "position_hash": null
  },
  {
    "id": 145,
    "comune": "Massello",
    "istat": "1145",
    "latitude": 44.95856162,
    "longitude": 7.05631276,
    "position_hash": null
  },
  {
    "id": 146,
    "comune": "Mathi",
    "istat": "1146",
    "latitude": 45.25664137,
    "longitude": 7.54132093,
    "position_hash": null
  },
  {
    "id": 147,
    "comune": "Mattie",
    "istat": "1147",
    "latitude": 45.1187052,
    "longitude": 7.11215191,
    "position_hash": null
  },
  {
    "id": 148,
    "comune": "Mazzè",
    "istat": "1148",
    "latitude": 45.29853622,
    "longitude": 7.93700162,
    "position_hash": null
  },
  {
    "id": 149,
    "comune": "Meana di Susa",
    "istat": "1149",
    "latitude": 45.12073332,
    "longitude": 7.06814068,
    "position_hash": null
  },
  {
    "id": 150,
    "comune": "Mercenasco",
    "istat": "1150",
    "latitude": 45.35697859,
    "longitude": 7.88256683,
    "position_hash": null
  },
  {
    "id": 151,
    "comune": "Meugliano",
    "istat": "1151",
    "latitude": 45.49006995,
    "longitude": 7.7789622,
    "position_hash": null
  },
  {
    "id": 152,
    "comune": "Mezzenile",
    "istat": "1152",
    "latitude": 45.29240402,
    "longitude": 7.39502001,
    "position_hash": null
  },
  {
    "id": 153,
    "comune": "Mombello di Torino",
    "istat": "1153",
    "latitude": 45.0464001,
    "longitude": 7.9195483,
    "position_hash": null
  },
  {
    "id": 154,
    "comune": "Mompantero",
    "istat": "1154",
    "latitude": 45.13990657,
    "longitude": 7.0579733,
    "position_hash": null
  },
  {
    "id": 155,
    "comune": "Monastero di Lanzo",
    "istat": "1155",
    "latitude": 45.30142445,
    "longitude": 7.43913232,
    "position_hash": null
  },
  {
    "id": 156,
    "comune": "Moncalieri",
    "istat": "1156",
    "latitude": 45.00092557,
    "longitude": 7.68524785,
    "position_hash": null
  },
  {
    "id": 157,
    "comune": "Moncenisio",
    "istat": "1157",
    "latitude": 45.20528865,
    "longitude": 6.98356095,
    "position_hash": null
  },
  {
    "id": 158,
    "comune": "Montaldo Torinese",
    "istat": "1158",
    "latitude": 45.06636449,
    "longitude": 7.85089356,
    "position_hash": null
  },
  {
    "id": 159,
    "comune": "Montalenghe",
    "istat": "1159",
    "latitude": 45.33772294,
    "longitude": 7.83985641,
    "position_hash": null
  },
  {
    "id": 160,
    "comune": "Montalto Dora",
    "istat": "1160",
    "latitude": 45.49362402,
    "longitude": 7.86379472,
    "position_hash": null
  },
  {
    "id": 161,
    "comune": "Montanaro",
    "istat": "1161",
    "latitude": 45.23289425,
    "longitude": 7.85282569,
    "position_hash": null
  },
  {
    "id": 162,
    "comune": "Monteu da Po",
    "istat": "1162",
    "latitude": 45.15054215,
    "longitude": 8.01478453,
    "position_hash": null
  },
  {
    "id": 163,
    "comune": "Moriondo Torinese",
    "istat": "1163",
    "latitude": 45.03906243,
    "longitude": 7.94405562,
    "position_hash": null
  },
  {
    "id": 164,
    "comune": "Nichelino",
    "istat": "1164",
    "latitude": 44.99519052,
    "longitude": 7.64737268,
    "position_hash": null
  },
  {
    "id": 165,
    "comune": "Noasca",
    "istat": "1165",
    "latitude": 45.45305086,
    "longitude": 7.31354369,
    "position_hash": null
  },
  {
    "id": 166,
    "comune": "Nole",
    "istat": "1166",
    "latitude": 45.24523673,
    "longitude": 7.57012122,
    "position_hash": null
  },
  {
    "id": 167,
    "comune": "Nomaglio",
    "istat": "1167",
    "latitude": 45.53518242,
    "longitude": 7.85971537,
    "position_hash": null
  },
  {
    "id": 168,
    "comune": "None",
    "istat": "1168",
    "latitude": 44.93231301,
    "longitude": 7.54123958,
    "position_hash": null
  },
  {
    "id": 169,
    "comune": "Novalesa",
    "istat": "1169",
    "latitude": 45.18763602,
    "longitude": 7.01466579,
    "position_hash": null
  },
  {
    "id": 170,
    "comune": "Oglianico",
    "istat": "1170",
    "latitude": 45.34256696,
    "longitude": 7.69274392,
    "position_hash": null
  },
  {
    "id": 171,
    "comune": "Orbassano",
    "istat": "1171",
    "latitude": 45.00703303,
    "longitude": 7.53695676,
    "position_hash": null
  },
  {
    "id": 172,
    "comune": "Orio Canavese",
    "istat": "1172",
    "latitude": 45.32848958,
    "longitude": 7.86029968,
    "position_hash": null
  },
  {
    "id": 173,
    "comune": "Osasco",
    "istat": "1173",
    "latitude": 44.84947467,
    "longitude": 7.34316619,
    "position_hash": null
  },
  {
    "id": 174,
    "comune": "Osasio",
    "istat": "1174",
    "latitude": 44.86946279,
    "longitude": 7.60752807,
    "position_hash": null
  },
  {
    "id": 175,
    "comune": "Oulx",
    "istat": "1175",
    "latitude": 45.03127204,
    "longitude": 6.83221872,
    "position_hash": null
  },
  {
    "id": 176,
    "comune": "Ozegna",
    "istat": "1176",
    "latitude": 45.34901489,
    "longitude": 7.74313424,
    "position_hash": null
  },
  {
    "id": 177,
    "comune": "Palazzo Canavese",
    "istat": "1177",
    "latitude": 45.45747804,
    "longitude": 7.9780495,
    "position_hash": null
  },
  {
    "id": 178,
    "comune": "Pancalieri",
    "istat": "1178",
    "latitude": 44.83047398,
    "longitude": 7.58816166,
    "position_hash": null
  },
  {
    "id": 179,
    "comune": "Parella",
    "istat": "1179",
    "latitude": 45.42998528,
    "longitude": 7.7910275,
    "position_hash": null
  },
  {
    "id": 180,
    "comune": "Pavarolo",
    "istat": "1180",
    "latitude": 45.06892615,
    "longitude": 7.83475798,
    "position_hash": null
  },
  {
    "id": 181,
    "comune": "Pavone Canavese",
    "istat": "1181",
    "latitude": 45.4352612,
    "longitude": 7.85397607,
    "position_hash": null
  },
  {
    "id": 182,
    "comune": "Pecco",
    "istat": "1182",
    "latitude": 45.45206809,
    "longitude": 7.77647961,
    "position_hash": null
  },
  {
    "id": 183,
    "comune": "Pecetto Torinese",
    "istat": "1183",
    "latitude": 45.01955866,
    "longitude": 7.74869987,
    "position_hash": null
  },
  {
    "id": 184,
    "comune": "Perosa Argentina",
    "istat": "1184",
    "latitude": 44.95809915,
    "longitude": 7.19237022,
    "position_hash": null
  },
  {
    "id": 185,
    "comune": "Perosa Canavese",
    "istat": "1185",
    "latitude": 45.39715691,
    "longitude": 7.82925599,
    "position_hash": null
  },
  {
    "id": 186,
    "comune": "Perrero",
    "istat": "1186",
    "latitude": 44.93745704,
    "longitude": 7.11526705,
    "position_hash": null
  },
  {
    "id": 187,
    "comune": "Pertusio",
    "istat": "1187",
    "latitude": 45.35339905,
    "longitude": 7.63872415,
    "position_hash": null
  },
  {
    "id": 188,
    "comune": "Pessinetto",
    "istat": "1188",
    "latitude": 45.29054324,
    "longitude": 7.40284722,
    "position_hash": null
  },
  {
    "id": 189,
    "comune": "Pianezza",
    "istat": "1189",
    "latitude": 45.10062332,
    "longitude": 7.54635756,
    "position_hash": null
  },
  {
    "id": 190,
    "comune": "Pinasca",
    "istat": "1190",
    "latitude": 44.94266195,
    "longitude": 7.22767284,
    "position_hash": null
  },
  {
    "id": 191,
    "comune": "Pinerolo",
    "istat": "1191",
    "latitude": 44.88733486,
    "longitude": 7.33200099,
    "position_hash": null
  },
  {
    "id": 192,
    "comune": "Pino Torinese",
    "istat": "1192",
    "latitude": 45.0435201,
    "longitude": 7.77216514,
    "position_hash": null
  },
  {
    "id": 193,
    "comune": "Piobesi Torinese",
    "istat": "1193",
    "latitude": 44.93305708,
    "longitude": 7.61193106,
    "position_hash": null
  },
  {
    "id": 194,
    "comune": "Piossasco",
    "istat": "1194",
    "latitude": 44.99070006,
    "longitude": 7.46275512,
    "position_hash": null
  },
  {
    "id": 195,
    "comune": "Piscina",
    "istat": "1195",
    "latitude": 44.9194642,
    "longitude": 7.42589738,
    "position_hash": null
  },
  {
    "id": 196,
    "comune": "Piverone",
    "istat": "1196",
    "latitude": 45.44754377,
    "longitude": 8.00710274,
    "position_hash": null
  },
  {
    "id": 197,
    "comune": "Poirino",
    "istat": "1197",
    "latitude": 44.92119885,
    "longitude": 7.84361932,
    "position_hash": null
  },
  {
    "id": 198,
    "comune": "Pomaretto",
    "istat": "1198",
    "latitude": 44.95506624,
    "longitude": 7.18220303,
    "position_hash": null
  },
  {
    "id": 199,
    "comune": "Pont-Canavese",
    "istat": "1199",
    "latitude": 45.42072843,
    "longitude": 7.59357096,
    "position_hash": null
  },
  {
    "id": 200,
    "comune": "Porte",
    "istat": "1200",
    "latitude": 44.88756523,
    "longitude": 7.2679851,
    "position_hash": null
  },
  {
    "id": 201,
    "comune": "Pragelato",
    "istat": "1201",
    "latitude": 45.0162756,
    "longitude": 6.94229337,
    "position_hash": null
  },
  {
    "id": 202,
    "comune": "Prali",
    "istat": "1202",
    "latitude": 44.89040764,
    "longitude": 7.04904363,
    "position_hash": null
  },
  {
    "id": 203,
    "comune": "Pralormo",
    "istat": "1203",
    "latitude": 44.86135787,
    "longitude": 7.90066311,
    "position_hash": null
  },
  {
    "id": 204,
    "comune": "Pramollo",
    "istat": "1204",
    "latitude": 44.90458825,
    "longitude": 7.21169848,
    "position_hash": null
  },
  {
    "id": 205,
    "comune": "Prarostino",
    "istat": "1205",
    "latitude": 44.86584045,
    "longitude": 7.2697214,
    "position_hash": null
  },
  {
    "id": 206,
    "comune": "Prascorsano",
    "istat": "1206",
    "latitude": 45.36765655,
    "longitude": 7.61570863,
    "position_hash": null
  },
  {
    "id": 207,
    "comune": "Pratiglione",
    "istat": "1207",
    "latitude": 45.35364806,
    "longitude": 7.59609066,
    "position_hash": null
  },
  {
    "id": 208,
    "comune": "Quagliuzzo",
    "istat": "1208",
    "latitude": 45.42649496,
    "longitude": 7.78183655,
    "position_hash": null
  },
  {
    "id": 209,
    "comune": "Quassolo",
    "istat": "1209",
    "latitude": 45.52493469,
    "longitude": 7.83247599,
    "position_hash": null
  },
  {
    "id": 210,
    "comune": "Quincinetto",
    "istat": "1210",
    "latitude": 45.56081088,
    "longitude": 7.80576899,
    "position_hash": null
  },
  {
    "id": 211,
    "comune": "Reano",
    "istat": "1211",
    "latitude": 45.05170702,
    "longitude": 7.42955396,
    "position_hash": null
  },
  {
    "id": 212,
    "comune": "Ribordone",
    "istat": "1212",
    "latitude": 45.43160898,
    "longitude": 7.50241918,
    "position_hash": null
  },
  {
    "id": 213,
    "comune": "Rivalba",
    "istat": "1213",
    "latitude": 45.11880638,
    "longitude": 7.8870447,
    "position_hash": null
  },
  {
    "id": 214,
    "comune": "Rivalta di Torino",
    "istat": "1214",
    "latitude": 45.03454517,
    "longitude": 7.52329257,
    "position_hash": null
  },
  {
    "id": 215,
    "comune": "Riva presso Chieri",
    "istat": "1215",
    "latitude": 44.98628102,
    "longitude": 7.86919927,
    "position_hash": null
  },
  {
    "id": 216,
    "comune": "Rivara",
    "istat": "1216",
    "latitude": 45.33231529,
    "longitude": 7.62506151,
    "position_hash": null
  },
  {
    "id": 217,
    "comune": "Rivarolo Canavese",
    "istat": "1217",
    "latitude": 45.33279488,
    "longitude": 7.7252213,
    "position_hash": null
  },
  {
    "id": 218,
    "comune": "Rivarossa",
    "istat": "1218",
    "latitude": 45.25127899,
    "longitude": 7.71719961,
    "position_hash": null
  },
  {
    "id": 219,
    "comune": "Rivoli",
    "istat": "1219",
    "latitude": 45.07062854,
    "longitude": 7.53394487,
    "position_hash": null
  },
  {
    "id": 220,
    "comune": "Robassomero",
    "istat": "1220",
    "latitude": 45.20008262,
    "longitude": 7.57015928,
    "position_hash": null
  },
  {
    "id": 221,
    "comune": "Rocca Canavese",
    "istat": "1221",
    "latitude": 45.30940721,
    "longitude": 7.57853704,
    "position_hash": null
  },
  {
    "id": 222,
    "comune": "Roletto",
    "istat": "1222",
    "latitude": 44.92524919,
    "longitude": 7.33066832,
    "position_hash": null
  },
  {
    "id": 223,
    "comune": "Romano Canavese",
    "istat": "1223",
    "latitude": 45.39134325,
    "longitude": 7.86790447,
    "position_hash": null
  },
  {
    "id": 224,
    "comune": "Ronco Canavese",
    "istat": "1224",
    "latitude": 45.4994291,
    "longitude": 7.54567243,
    "position_hash": null
  },
  {
    "id": 225,
    "comune": "Rondissone",
    "istat": "1225",
    "latitude": 45.24678796,
    "longitude": 7.96581632,
    "position_hash": null
  },
  {
    "id": 226,
    "comune": "Rorà",
    "istat": "1226",
    "latitude": 44.79230499,
    "longitude": 7.19849234,
    "position_hash": null
  },
  {
    "id": 227,
    "comune": "Roure",
    "istat": "1227",
    "latitude": 45.00108393,
    "longitude": 7.12908516,
    "position_hash": null
  },
  {
    "id": 228,
    "comune": "Rosta",
    "istat": "1228",
    "latitude": 45.07142005,
    "longitude": 7.4639672,
    "position_hash": null
  },
  {
    "id": 229,
    "comune": "Rubiana",
    "istat": "1229",
    "latitude": 45.13920427,
    "longitude": 7.38239842,
    "position_hash": null
  },
  {
    "id": 230,
    "comune": "Rueglio",
    "istat": "1230",
    "latitude": 45.46784892,
    "longitude": 7.75582201,
    "position_hash": null
  },
  {
    "id": 231,
    "comune": "Salassa",
    "istat": "1231",
    "latitude": 45.35955646,
    "longitude": 7.68939186,
    "position_hash": null
  },
  {
    "id": 232,
    "comune": "Salbertrand",
    "istat": "1232",
    "latitude": 45.07237164,
    "longitude": 6.88368812,
    "position_hash": null
  },
  {
    "id": 233,
    "comune": "Salerano Canavese",
    "istat": "1233",
    "latitude": 45.45644258,
    "longitude": 7.84990248,
    "position_hash": null
  },
  {
    "id": 234,
    "comune": "Salza di Pinerolo",
    "istat": "1234",
    "latitude": 44.94054394,
    "longitude": 7.05324489,
    "position_hash": null
  },
  {
    "id": 235,
    "comune": "Samone",
    "istat": "1235",
    "latitude": 45.44928553,
    "longitude": 7.84564332,
    "position_hash": null
  },
  {
    "id": 236,
    "comune": "San Benigno Canavese",
    "istat": "1236",
    "latitude": 45.22396157,
    "longitude": 7.78265511,
    "position_hash": null
  },
  {
    "id": 237,
    "comune": "San Carlo Canavese",
    "istat": "1237",
    "latitude": 45.24815307,
    "longitude": 7.61016157,
    "position_hash": null
  },
  {
    "id": 238,
    "comune": "San Colombano Belmonte",
    "istat": "1238",
    "latitude": 45.38143971,
    "longitude": 7.61845112,
    "position_hash": null
  },
  {
    "id": 239,
    "comune": "San Didero",
    "istat": "1239",
    "latitude": 45.13516257,
    "longitude": 7.21515502,
    "position_hash": null
  },
  {
    "id": 240,
    "comune": "San Francesco al Campo",
    "istat": "1240",
    "latitude": 45.22553762,
    "longitude": 7.65566462,
    "position_hash": null
  },
  {
    "id": 241,
    "comune": "Sangano",
    "istat": "1241",
    "latitude": 45.0262359,
    "longitude": 7.45053852,
    "position_hash": null
  },
  {
    "id": 242,
    "comune": "San Germano Chisone",
    "istat": "1242",
    "latitude": 44.89871585,
    "longitude": 7.24085653,
    "position_hash": null
  },
  {
    "id": 243,
    "comune": "San Gillio",
    "istat": "1243",
    "latitude": 45.14205994,
    "longitude": 7.53383254,
    "position_hash": null
  },
  {
    "id": 244,
    "comune": "San Giorgio Canavese",
    "istat": "1244",
    "latitude": 45.33544394,
    "longitude": 7.79425943,
    "position_hash": null
  },
  {
    "id": 245,
    "comune": "San Giorio di Susa",
    "istat": "1245",
    "latitude": 45.12841513,
    "longitude": 7.17753154,
    "position_hash": null
  },
  {
    "id": 246,
    "comune": "San Giusto Canavese",
    "istat": "1246",
    "latitude": 45.31221415,
    "longitude": 7.80833346,
    "position_hash": null
  },
  {
    "id": 247,
    "comune": "San Martino Canavese",
    "istat": "1247",
    "latitude": 45.39459427,
    "longitude": 7.81836251,
    "position_hash": null
  },
  {
    "id": 248,
    "comune": "San Maurizio Canavese",
    "istat": "1248",
    "latitude": 45.21911823,
    "longitude": 7.63075305,
    "position_hash": null
  },
  {
    "id": 249,
    "comune": "San Mauro Torinese",
    "istat": "1249",
    "latitude": 45.10309541,
    "longitude": 7.76632833,
    "position_hash": null
  },
  {
    "id": 250,
    "comune": "San Pietro Val Lemina",
    "istat": "1250",
    "latitude": 44.90732828,
    "longitude": 7.31355518,
    "position_hash": null
  },
  {
    "id": 251,
    "comune": "San Ponso",
    "istat": "1251",
    "latitude": 45.35081649,
    "longitude": 7.66751665,
    "position_hash": null
  },
  {
    "id": 252,
    "comune": "San Raffaele Cimena",
    "istat": "1252",
    "latitude": 45.147225,
    "longitude": 7.84869672,
    "position_hash": null
  },
  {
    "id": 253,
    "comune": "San Sebastiano da Po",
    "istat": "1253",
    "latitude": 45.16644198,
    "longitude": 7.9534693,
    "position_hash": null
  },
  {
    "id": 254,
    "comune": "San Secondo di Pinerolo",
    "istat": "1254",
    "latitude": 44.86656606,
    "longitude": 7.29864772,
    "position_hash": null
  },
  {
    "id": 255,
    "comune": "Sant'Ambrogio di Torino",
    "istat": "1255",
    "latitude": 45.09968774,
    "longitude": 7.35931306,
    "position_hash": null
  },
  {
    "id": 256,
    "comune": "Sant'Antonino di Susa",
    "istat": "1256",
    "latitude": 45.10708303,
    "longitude": 7.27350974,
    "position_hash": null
  },
  {
    "id": 257,
    "comune": "Santena",
    "istat": "1257",
    "latitude": 44.94968716,
    "longitude": 7.77316006,
    "position_hash": null
  },
  {
    "id": 258,
    "comune": "Sauze di Cesana",
    "istat": "1258",
    "latitude": 44.94044645,
    "longitude": 6.86049707,
    "position_hash": null
  },
  {
    "id": 259,
    "comune": "Sauze d'Oulx",
    "istat": "1259",
    "latitude": 45.02808681,
    "longitude": 6.85824935,
    "position_hash": null
  },
  {
    "id": 260,
    "comune": "Scalenghe",
    "istat": "1260",
    "latitude": 44.88830917,
    "longitude": 7.49796536,
    "position_hash": null
  },
  {
    "id": 261,
    "comune": "Scarmagno",
    "istat": "1261",
    "latitude": 45.38582635,
    "longitude": 7.8407106,
    "position_hash": null
  },
  {
    "id": 262,
    "comune": "Sciolze",
    "istat": "1262",
    "latitude": 45.09503651,
    "longitude": 7.87766236,
    "position_hash": null
  },
  {
    "id": 263,
    "comune": "Sestriere",
    "istat": "1263",
    "latitude": 44.95764886,
    "longitude": 6.87655108,
    "position_hash": null
  },
  {
    "id": 264,
    "comune": "Settimo Rottaro",
    "istat": "1264",
    "latitude": 45.40489983,
    "longitude": 7.99223087,
    "position_hash": null
  },
  {
    "id": 265,
    "comune": "Settimo Torinese",
    "istat": "1265",
    "latitude": 45.13698893,
    "longitude": 7.77124007,
    "position_hash": null
  },
  {
    "id": 266,
    "comune": "Settimo Vittone",
    "istat": "1266",
    "latitude": 45.54810664,
    "longitude": 7.831721,
    "position_hash": null
  },
  {
    "id": 267,
    "comune": "Sparone",
    "istat": "1267",
    "latitude": 45.41330062,
    "longitude": 7.54421421,
    "position_hash": null
  },
  {
    "id": 268,
    "comune": "Strambinello",
    "istat": "1268",
    "latitude": 45.42324307,
    "longitude": 7.76866207,
    "position_hash": null
  },
  {
    "id": 269,
    "comune": "Strambino",
    "istat": "1269",
    "latitude": 45.38458718,
    "longitude": 7.88062828,
    "position_hash": null
  },
  {
    "id": 270,
    "comune": "Susa",
    "istat": "1270",
    "latitude": 45.13525075,
    "longitude": 7.04641962,
    "position_hash": null
  },
  {
    "id": 271,
    "comune": "Tavagnasco",
    "istat": "1271",
    "latitude": 45.54322012,
    "longitude": 7.82261044,
    "position_hash": null
  },
  {
    "id": 272,
    "comune": "Torino",
    "istat": "1272",
    "latitude": 45.0732745,
    "longitude": 7.68068748,
    "position_hash": null
  },
  {
    "id": 273,
    "comune": "Torrazza Piemonte",
    "istat": "1273",
    "latitude": 45.21520992,
    "longitude": 7.9749012,
    "position_hash": null
  },
  {
    "id": 274,
    "comune": "Torre Canavese",
    "istat": "1274",
    "latitude": 45.39182464,
    "longitude": 7.76053919,
    "position_hash": null
  },
  {
    "id": 275,
    "comune": "Torre Pellice",
    "istat": "1275",
    "latitude": 44.82074148,
    "longitude": 7.22397861,
    "position_hash": null
  },
  {
    "id": 276,
    "comune": "Trana",
    "istat": "1276",
    "latitude": 45.03709504,
    "longitude": 7.41730319,
    "position_hash": null
  },
  {
    "id": 277,
    "comune": "Trausella",
    "istat": "1277",
    "latitude": 45.49022243,
    "longitude": 7.76450377,
    "position_hash": null
  },
  {
    "id": 278,
    "comune": "Traversella",
    "istat": "1278",
    "latitude": 45.5094096,
    "longitude": 7.75041006,
    "position_hash": null
  },
  {
    "id": 279,
    "comune": "Traves",
    "istat": "1279",
    "latitude": 45.27057879,
    "longitude": 7.42974781,
    "position_hash": null
  },
  {
    "id": 280,
    "comune": "Trofarello",
    "istat": "1280",
    "latitude": 44.98596444,
    "longitude": 7.7403033,
    "position_hash": null
  },
  {
    "id": 281,
    "comune": "Usseaux",
    "istat": "1281",
    "latitude": 45.04849799,
    "longitude": 7.02687343,
    "position_hash": null
  },
  {
    "id": 282,
    "comune": "Usseglio",
    "istat": "1282",
    "latitude": 45.23272497,
    "longitude": 7.21722031,
    "position_hash": null
  },
  {
    "id": 283,
    "comune": "Vaie",
    "istat": "1283",
    "latitude": 45.10189314,
    "longitude": 7.28663072,
    "position_hash": null
  },
  {
    "id": 284,
    "comune": "Val della Torre",
    "istat": "1284",
    "latitude": 45.15556488,
    "longitude": 7.44941143,
    "position_hash": null
  },
  {
    "id": 285,
    "comune": "Valgioie",
    "istat": "1285",
    "latitude": 45.07600826,
    "longitude": 7.33963962,
    "position_hash": null
  },
  {
    "id": 286,
    "comune": "Vallo Torinese",
    "istat": "1286",
    "latitude": 45.22350106,
    "longitude": 7.49928924,
    "position_hash": null
  },
  {
    "id": 287,
    "comune": "Valperga",
    "istat": "1287",
    "latitude": 45.37027102,
    "longitude": 7.6567871,
    "position_hash": null
  },
  {
    "id": 288,
    "comune": "Valprato Soana",
    "istat": "1288",
    "latitude": 45.5223738,
    "longitude": 7.5489665,
    "position_hash": null
  },
  {
    "id": 289,
    "comune": "Varisella",
    "istat": "1289",
    "latitude": 45.20984085,
    "longitude": 7.48902531,
    "position_hash": null
  },
  {
    "id": 290,
    "comune": "Vauda Canavese",
    "istat": "1290",
    "latitude": 45.27924268,
    "longitude": 7.6182079,
    "position_hash": null
  },
  {
    "id": 291,
    "comune": "Venaus",
    "istat": "1291",
    "latitude": 45.15470177,
    "longitude": 7.01194778,
    "position_hash": null
  },
  {
    "id": 292,
    "comune": "Venaria Reale",
    "istat": "1292",
    "latitude": 45.1325374,
    "longitude": 7.63149732,
    "position_hash": null
  },
  {
    "id": 293,
    "comune": "Verolengo",
    "istat": "1293",
    "latitude": 45.18904937,
    "longitude": 7.96715786,
    "position_hash": null
  },
  {
    "id": 294,
    "comune": "Verrua Savoia",
    "istat": "1294",
    "latitude": 45.15655009,
    "longitude": 8.09314758,
    "position_hash": null
  },
  {
    "id": 295,
    "comune": "Vestignè",
    "istat": "1295",
    "latitude": 45.38670164,
    "longitude": 7.95387863,
    "position_hash": null
  },
  {
    "id": 296,
    "comune": "Vialfrè",
    "istat": "1296",
    "latitude": 45.38083894,
    "longitude": 7.81817187,
    "position_hash": null
  },
  {
    "id": 297,
    "comune": "Vico Canavese",
    "istat": "1297",
    "latitude": 45.49432405,
    "longitude": 7.77942268,
    "position_hash": null
  },
  {
    "id": 298,
    "comune": "Vidracco",
    "istat": "1298",
    "latitude": 45.43045472,
    "longitude": 7.75901516,
    "position_hash": null
  },
  {
    "id": 299,
    "comune": "Vigone",
    "istat": "1299",
    "latitude": 44.84235593,
    "longitude": 7.49452417,
    "position_hash": null
  },
  {
    "id": 300,
    "comune": "Villafranca Piemonte",
    "istat": "1300",
    "latitude": 44.78128218,
    "longitude": 7.50450846,
    "position_hash": null
  },
  {
    "id": 301,
    "comune": "Villanova Canavese",
    "istat": "1301",
    "latitude": 45.24293558,
    "longitude": 7.55354045,
    "position_hash": null
  },
  {
    "id": 302,
    "comune": "Villarbasse",
    "istat": "1302",
    "latitude": 45.04487159,
    "longitude": 7.46800102,
    "position_hash": null
  },
  {
    "id": 303,
    "comune": "Villar Dora",
    "istat": "1303",
    "latitude": 45.11783797,
    "longitude": 7.38382219,
    "position_hash": null
  },
  {
    "id": 304,
    "comune": "Villareggia",
    "istat": "1304",
    "latitude": 45.31101176,
    "longitude": 7.97850007,
    "position_hash": null
  },
  {
    "id": 305,
    "comune": "Villar Focchiardo",
    "istat": "1305",
    "latitude": 45.10971506,
    "longitude": 7.22668959,
    "position_hash": null
  },
  {
    "id": 306,
    "comune": "Villar Pellice",
    "istat": "1306",
    "latitude": 44.80859193,
    "longitude": 7.15827939,
    "position_hash": null
  },
  {
    "id": 307,
    "comune": "Villar Perosa",
    "istat": "1307",
    "latitude": 44.92019309,
    "longitude": 7.24926893,
    "position_hash": null
  },
  {
    "id": 308,
    "comune": "Villastellone",
    "istat": "1308",
    "latitude": 44.92155495,
    "longitude": 7.7453532,
    "position_hash": null
  },
  {
    "id": 309,
    "comune": "Vinovo",
    "istat": "1309",
    "latitude": 44.94878443,
    "longitude": 7.63424154,
    "position_hash": null
  },
  {
    "id": 310,
    "comune": "Virle Piemonte",
    "istat": "1310",
    "latitude": 44.86594197,
    "longitude": 7.56889069,
    "position_hash": null
  },
  {
    "id": 311,
    "comune": "Vische",
    "istat": "1311",
    "latitude": 45.33156931,
    "longitude": 7.95138039,
    "position_hash": null
  },
  {
    "id": 312,
    "comune": "Vistrorio",
    "istat": "1312",
    "latitude": 45.44109707,
    "longitude": 7.76941978,
    "position_hash": null
  },
  {
    "id": 313,
    "comune": "Viù",
    "istat": "1313",
    "latitude": 45.23894208,
    "longitude": 7.37646792,
    "position_hash": null
  },
  {
    "id": 314,
    "comune": "Volpiano",
    "istat": "1314",
    "latitude": 45.20189898,
    "longitude": 7.77555033,
    "position_hash": null
  },
  {
    "id": 315,
    "comune": "Volvera",
    "istat": "1315",
    "latitude": 44.95502486,
    "longitude": 7.51230483,
    "position_hash": null
  },
  {
    "id": 316,
    "comune": "Mappano",
    "istat": "1316",
    "latitude": 45.1475,
    "longitude": 7.707,
    "position_hash": null
  },
  {
    "id": 317,
    "comune": "Alagna Valsesia",
    "istat": "2002",
    "latitude": 45.85332586,
    "longitude": 7.93812982,
    "position_hash": null
  },
  {
    "id": 318,
    "comune": "Albano Vercellese",
    "istat": "2003",
    "latitude": 45.42511503,
    "longitude": 8.38058282,
    "position_hash": null
  },
  {
    "id": 319,
    "comune": "Alice Castello",
    "istat": "2004",
    "latitude": 45.36652862,
    "longitude": 8.07469466,
    "position_hash": null
  },
  {
    "id": 320,
    "comune": "Arborio",
    "istat": "2006",
    "latitude": 45.49608576,
    "longitude": 8.38898545,
    "position_hash": null
  },
  {
    "id": 321,
    "comune": "Asigliano Vercellese",
    "istat": "2007",
    "latitude": 45.26117617,
    "longitude": 8.40619426,
    "position_hash": null
  },
  {
    "id": 322,
    "comune": "Balmuccia",
    "istat": "2008",
    "latitude": 45.81834722,
    "longitude": 8.13825637,
    "position_hash": null
  },
  {
    "id": 323,
    "comune": "Balocco",
    "istat": "2009",
    "latitude": 45.45553463,
    "longitude": 8.28103358,
    "position_hash": null
  },
  {
    "id": 324,
    "comune": "Bianzè",
    "istat": "2011",
    "latitude": 45.30737818,
    "longitude": 8.12006412,
    "position_hash": null
  },
  {
    "id": 325,
    "comune": "Boccioleto",
    "istat": "2014",
    "latitude": 45.82998665,
    "longitude": 8.11329092,
    "position_hash": null
  },
  {
    "id": 326,
    "comune": "Borgo d'Ale",
    "istat": "2015",
    "latitude": 45.34991763,
    "longitude": 8.05372704,
    "position_hash": null
  },
  {
    "id": 327,
    "comune": "Borgosesia",
    "istat": "2016",
    "latitude": 45.71672956,
    "longitude": 8.27641052,
    "position_hash": null
  },
  {
    "id": 328,
    "comune": "Borgo Vercelli",
    "istat": "2017",
    "latitude": 45.35715818,
    "longitude": 8.4663705,
    "position_hash": null
  },
  {
    "id": 329,
    "comune": "Breia",
    "istat": "2019",
    "latitude": 45.76411748,
    "longitude": 8.30720564,
    "position_hash": null
  },
  {
    "id": 330,
    "comune": "Buronzo",
    "istat": "2021",
    "latitude": 45.48211892,
    "longitude": 8.26833442,
    "position_hash": null
  },
  {
    "id": 331,
    "comune": "Campertogno",
    "istat": "2025",
    "latitude": 45.79867325,
    "longitude": 8.03216717,
    "position_hash": null
  },
  {
    "id": 332,
    "comune": "Carcoforo",
    "istat": "2029",
    "latitude": 45.90888987,
    "longitude": 8.04890161,
    "position_hash": null
  },
  {
    "id": 333,
    "comune": "Caresana",
    "istat": "2030",
    "latitude": 45.22108416,
    "longitude": 8.50648564,
    "position_hash": null
  },
  {
    "id": 334,
    "comune": "Caresanablot",
    "istat": "2031",
    "latitude": 45.35735225,
    "longitude": 8.38877273,
    "position_hash": null
  },
  {
    "id": 335,
    "comune": "Carisio",
    "istat": "2032",
    "latitude": 45.408461,
    "longitude": 8.19858607,
    "position_hash": null
  },
  {
    "id": 336,
    "comune": "Casanova Elvo",
    "istat": "2033",
    "latitude": 45.39952964,
    "longitude": 8.2933069,
    "position_hash": null
  },
  {
    "id": 337,
    "comune": "San Giacomo Vercellese",
    "istat": "2035",
    "latitude": 45.49741181,
    "longitude": 8.32534514,
    "position_hash": null
  },
  {
    "id": 338,
    "comune": "Cellio",
    "istat": "2038",
    "latitude": 45.75546715,
    "longitude": 8.31309615,
    "position_hash": null
  },
  {
    "id": 339,
    "comune": "Cervatto",
    "istat": "2041",
    "latitude": 45.88308084,
    "longitude": 8.16235419,
    "position_hash": null
  },
  {
    "id": 340,
    "comune": "Cigliano",
    "istat": "2042",
    "latitude": 45.309557,
    "longitude": 8.021489,
    "position_hash": null
  },
  {
    "id": 341,
    "comune": "Civiasco",
    "istat": "2043",
    "latitude": 45.80668518,
    "longitude": 8.29278728,
    "position_hash": null
  },
  {
    "id": 342,
    "comune": "Collobiano",
    "istat": "2045",
    "latitude": 45.39712515,
    "longitude": 8.34853582,
    "position_hash": null
  },
  {
    "id": 343,
    "comune": "Costanzana",
    "istat": "2047",
    "latitude": 45.23619745,
    "longitude": 8.3700654,
    "position_hash": null
  },
  {
    "id": 344,
    "comune": "Cravagliana",
    "istat": "2048",
    "latitude": 45.84734738,
    "longitude": 8.20112963,
    "position_hash": null
  },
  {
    "id": 345,
    "comune": "Crescentino",
    "istat": "2049",
    "latitude": 45.19232707,
    "longitude": 8.10258275,
    "position_hash": null
  },
  {
    "id": 346,
    "comune": "Crova",
    "istat": "2052",
    "latitude": 45.33003762,
    "longitude": 8.21192995,
    "position_hash": null
  },
  {
    "id": 347,
    "comune": "Desana",
    "istat": "2054",
    "latitude": 45.26873384,
    "longitude": 8.35745053,
    "position_hash": null
  },
  {
    "id": 348,
    "comune": "Fobello",
    "istat": "2057",
    "latitude": 45.88955756,
    "longitude": 8.15891887,
    "position_hash": null
  },
  {
    "id": 349,
    "comune": "Fontanetto Po",
    "istat": "2058",
    "latitude": 45.19339547,
    "longitude": 8.19171653,
    "position_hash": null
  },
  {
    "id": 350,
    "comune": "Formigliana",
    "istat": "2059",
    "latitude": 45.42877725,
    "longitude": 8.2929106,
    "position_hash": null
  },
  {
    "id": 351,
    "comune": "Gattinara",
    "istat": "2061",
    "latitude": 45.61734452,
    "longitude": 8.37128081,
    "position_hash": null
  },
  {
    "id": 352,
    "comune": "Ghislarengo",
    "istat": "2062",
    "latitude": 45.52931694,
    "longitude": 8.38432306,
    "position_hash": null
  },
  {
    "id": 353,
    "comune": "Greggio",
    "istat": "2065",
    "latitude": 45.45180309,
    "longitude": 8.38247553,
    "position_hash": null
  },
  {
    "id": 354,
    "comune": "Guardabosone",
    "istat": "2066",
    "latitude": 45.7009391,
    "longitude": 8.25032253,
    "position_hash": null
  },
  {
    "id": 355,
    "comune": "Lamporo",
    "istat": "2067",
    "latitude": 45.23008153,
    "longitude": 8.0975502,
    "position_hash": null
  },
  {
    "id": 356,
    "comune": "Lenta",
    "istat": "2068",
    "latitude": 45.55556369,
    "longitude": 8.38444808,
    "position_hash": null
  },
  {
    "id": 357,
    "comune": "Lignana",
    "istat": "2070",
    "latitude": 45.2852959,
    "longitude": 8.34604641,
    "position_hash": null
  },
  {
    "id": 358,
    "comune": "Livorno Ferraris",
    "istat": "2071",
    "latitude": 45.28165932,
    "longitude": 8.08199764,
    "position_hash": null
  },
  {
    "id": 359,
    "comune": "Lozzolo",
    "istat": "2072",
    "latitude": 45.62258776,
    "longitude": 8.3220795,
    "position_hash": null
  },
  {
    "id": 360,
    "comune": "Mollia",
    "istat": "2078",
    "latitude": 45.81528283,
    "longitude": 8.03096665,
    "position_hash": null
  },
  {
    "id": 361,
    "comune": "Moncrivello",
    "istat": "2079",
    "latitude": 45.33122991,
    "longitude": 7.99586116,
    "position_hash": null
  },
  {
    "id": 362,
    "comune": "Motta de' Conti",
    "istat": "2082",
    "latitude": 45.19150237,
    "longitude": 8.52077102,
    "position_hash": null
  },
  {
    "id": 363,
    "comune": "Olcenengo",
    "istat": "2088",
    "latitude": 45.3635942,
    "longitude": 8.31138984,
    "position_hash": null
  },
  {
    "id": 364,
    "comune": "Oldenico",
    "istat": "2089",
    "latitude": 45.40235336,
    "longitude": 8.3827208,
    "position_hash": null
  },
  {
    "id": 365,
    "comune": "Palazzolo Vercellese",
    "istat": "2090",
    "latitude": 45.18450002,
    "longitude": 8.23282434,
    "position_hash": null
  },
  {
    "id": 366,
    "comune": "Pertengo",
    "istat": "2091",
    "latitude": 45.23562007,
    "longitude": 8.41762904,
    "position_hash": null
  },
  {
    "id": 367,
    "comune": "Pezzana",
    "istat": "2093",
    "latitude": 45.26206373,
    "longitude": 8.48420194,
    "position_hash": null
  },
  {
    "id": 368,
    "comune": "Pila",
    "istat": "2096",
    "latitude": 45.77024834,
    "longitude": 8.08081524,
    "position_hash": null
  },
  {
    "id": 369,
    "comune": "Piode",
    "istat": "2097",
    "latitude": 45.76976604,
    "longitude": 8.05308685,
    "position_hash": null
  },
  {
    "id": 370,
    "comune": "Postua",
    "istat": "2102",
    "latitude": 45.71418815,
    "longitude": 8.23149631,
    "position_hash": null
  },
  {
    "id": 371,
    "comune": "Prarolo",
    "istat": "2104",
    "latitude": 45.28222769,
    "longitude": 8.47934379,
    "position_hash": null
  },
  {
    "id": 372,
    "comune": "Quarona",
    "istat": "2107",
    "latitude": 45.75985229,
    "longitude": 8.26542166,
    "position_hash": null
  },
  {
    "id": 373,
    "comune": "Quinto Vercellese",
    "istat": "2108",
    "latitude": 45.38047939,
    "longitude": 8.36218487,
    "position_hash": null
  },
  {
    "id": 374,
    "comune": "Rassa",
    "istat": "2110",
    "latitude": 45.7686266,
    "longitude": 8.0141935,
    "position_hash": null
  },
  {
    "id": 375,
    "comune": "Rima San Giuseppe",
    "istat": "2111",
    "latitude": 45.86531097,
    "longitude": 8.02339104,
    "position_hash": null
  },
  {
    "id": 376,
    "comune": "Rimasco",
    "istat": "2112",
    "latitude": 45.85848339,
    "longitude": 8.0629959,
    "position_hash": null
  },
  {
    "id": 377,
    "comune": "Rimella",
    "istat": "2113",
    "latitude": 45.90794146,
    "longitude": 8.18259236,
    "position_hash": null
  },
  {
    "id": 378,
    "comune": "Riva Valdobbia",
    "istat": "2114",
    "latitude": 45.83327671,
    "longitude": 7.95382909,
    "position_hash": null
  },
  {
    "id": 379,
    "comune": "Rive",
    "istat": "2115",
    "latitude": 45.21256687,
    "longitude": 8.4183193,
    "position_hash": null
  },
  {
    "id": 380,
    "comune": "Roasio",
    "istat": "2116",
    "latitude": 45.60862395,
    "longitude": 8.28892846,
    "position_hash": null
  },
  {
    "id": 381,
    "comune": "Ronsecco",
    "istat": "2118",
    "latitude": 45.25350322,
    "longitude": 8.27777195,
    "position_hash": null
  },
  {
    "id": 382,
    "comune": "Rossa",
    "istat": "2121",
    "latitude": 45.83354703,
    "longitude": 8.12564508,
    "position_hash": null
  },
  {
    "id": 383,
    "comune": "Rovasenda",
    "istat": "2122",
    "latitude": 45.53679031,
    "longitude": 8.31361503,
    "position_hash": null
  },
  {
    "id": 384,
    "comune": "Sabbia",
    "istat": "2123",
    "latitude": 45.85685912,
    "longitude": 8.23633112,
    "position_hash": null
  },
  {
    "id": 385,
    "comune": "Salasco",
    "istat": "2126",
    "latitude": 45.32528875,
    "longitude": 8.26378089,
    "position_hash": null
  },
  {
    "id": 386,
    "comune": "Sali Vercellese",
    "istat": "2127",
    "latitude": 45.30933121,
    "longitude": 8.32968249,
    "position_hash": null
  },
  {
    "id": 387,
    "comune": "Saluggia",
    "istat": "2128",
    "latitude": 45.23583395,
    "longitude": 8.01113811,
    "position_hash": null
  },
  {
    "id": 388,
    "comune": "San Germano Vercellese",
    "istat": "2131",
    "latitude": 45.350183,
    "longitude": 8.25094964,
    "position_hash": null
  },
  {
    "id": 389,
    "comune": "Santhià",
    "istat": "2133",
    "latitude": 45.366922,
    "longitude": 8.17435014,
    "position_hash": null
  },
  {
    "id": 390,
    "comune": "Scopa",
    "istat": "2134",
    "latitude": 45.79171337,
    "longitude": 8.11316044,
    "position_hash": null
  },
  {
    "id": 391,
    "comune": "Scopello",
    "istat": "2135",
    "latitude": 45.77367325,
    "longitude": 8.09484168,
    "position_hash": null
  },
  {
    "id": 392,
    "comune": "Serravalle Sesia",
    "istat": "2137",
    "latitude": 45.68614932,
    "longitude": 8.31147526,
    "position_hash": null
  },
  {
    "id": 393,
    "comune": "Stroppiana",
    "istat": "2142",
    "latitude": 45.2313955,
    "longitude": 8.45347729,
    "position_hash": null
  },
  {
    "id": 394,
    "comune": "Tricerro",
    "istat": "2147",
    "latitude": 45.23379809,
    "longitude": 8.32514946,
    "position_hash": null
  },
  {
    "id": 395,
    "comune": "Trino",
    "istat": "2148",
    "latitude": 45.19420619,
    "longitude": 8.29690047,
    "position_hash": null
  },
  {
    "id": 396,
    "comune": "Tronzano Vercellese",
    "istat": "2150",
    "latitude": 45.3427904,
    "longitude": 8.17469273,
    "position_hash": null
  },
  {
    "id": 397,
    "comune": "Valduggia",
    "istat": "2152",
    "latitude": 45.72638859,
    "longitude": 8.32785665,
    "position_hash": null
  },
  {
    "id": 398,
    "comune": "Varallo",
    "istat": "2156",
    "latitude": 45.81403992,
    "longitude": 8.25621194,
    "position_hash": null
  },
  {
    "id": 399,
    "comune": "Vercelli",
    "istat": "2158",
    "latitude": 45.32398135,
    "longitude": 8.42323431,
    "position_hash": null
  },
  {
    "id": 400,
    "comune": "Villarboit",
    "istat": "2163",
    "latitude": 45.43665326,
    "longitude": 8.33686901,
    "position_hash": null
  },
  {
    "id": 401,
    "comune": "Villata",
    "istat": "2164",
    "latitude": 45.38561063,
    "longitude": 8.43260279,
    "position_hash": null
  },
  {
    "id": 402,
    "comune": "Vocca",
    "istat": "2166",
    "latitude": 45.83098292,
    "longitude": 8.18753037,
    "position_hash": null
  },
  {
    "id": 403,
    "comune": "Agrate Conturbia",
    "istat": "3001",
    "latitude": 45.67598127,
    "longitude": 8.55992667,
    "position_hash": null
  },
  {
    "id": 404,
    "comune": "Ameno",
    "istat": "3002",
    "latitude": 45.78878319,
    "longitude": 8.43942761,
    "position_hash": null
  },
  {
    "id": 405,
    "comune": "Armeno",
    "istat": "3006",
    "latitude": 45.82196603,
    "longitude": 8.43917903,
    "position_hash": null
  },
  {
    "id": 406,
    "comune": "Arona",
    "istat": "3008",
    "latitude": 45.76039239,
    "longitude": 8.55948977,
    "position_hash": null
  },
  {
    "id": 407,
    "comune": "Barengo",
    "istat": "3012",
    "latitude": 45.574775,
    "longitude": 8.51201322,
    "position_hash": null
  },
  {
    "id": 408,
    "comune": "Bellinzago Novarese",
    "istat": "3016",
    "latitude": 45.57030363,
    "longitude": 8.63973111,
    "position_hash": null
  },
  {
    "id": 409,
    "comune": "Biandrate",
    "istat": "3018",
    "latitude": 45.45378226,
    "longitude": 8.46370551,
    "position_hash": null
  },
  {
    "id": 410,
    "comune": "Boca",
    "istat": "3019",
    "latitude": 45.67828729,
    "longitude": 8.40870545,
    "position_hash": null
  },
  {
    "id": 411,
    "comune": "Bogogno",
    "istat": "3021",
    "latitude": 45.66716613,
    "longitude": 8.53449913,
    "position_hash": null
  },
  {
    "id": 412,
    "comune": "Bolzano Novarese",
    "istat": "3022",
    "latitude": 45.76282586,
    "longitude": 8.44415269,
    "position_hash": null
  },
  {
    "id": 413,
    "comune": "Borgolavezzaro",
    "istat": "3023",
    "latitude": 45.31838337,
    "longitude": 8.69926765,
    "position_hash": null
  },
  {
    "id": 414,
    "comune": "Borgomanero",
    "istat": "3024",
    "latitude": 45.6988743,
    "longitude": 8.46298661,
    "position_hash": null
  },
  {
    "id": 415,
    "comune": "Borgo Ticino",
    "istat": "3025",
    "latitude": 45.68806799,
    "longitude": 8.60392229,
    "position_hash": null
  },
  {
    "id": 416,
    "comune": "Briga Novarese",
    "istat": "3026",
    "latitude": 45.73138349,
    "longitude": 8.45159151,
    "position_hash": null
  },
  {
    "id": 417,
    "comune": "Briona",
    "istat": "3027",
    "latitude": 45.54219977,
    "longitude": 8.4798194,
    "position_hash": null
  },
  {
    "id": 418,
    "comune": "Caltignaga",
    "istat": "3030",
    "latitude": 45.51708606,
    "longitude": 8.58791485,
    "position_hash": null
  },
  {
    "id": 419,
    "comune": "Cameri",
    "istat": "3032",
    "latitude": 45.50102461,
    "longitude": 8.66224358,
    "position_hash": null
  },
  {
    "id": 420,
    "comune": "Carpignano Sesia",
    "istat": "3036",
    "latitude": 45.5353062,
    "longitude": 8.41834081,
    "position_hash": null
  },
  {
    "id": 421,
    "comune": "Casalbeltrame",
    "istat": "3037",
    "latitude": 45.43623977,
    "longitude": 8.46837851,
    "position_hash": null
  },
  {
    "id": 422,
    "comune": "Casaleggio Novara",
    "istat": "3039",
    "latitude": 45.48630378,
    "longitude": 8.49266595,
    "position_hash": null
  },
  {
    "id": 423,
    "comune": "Casalino",
    "istat": "3040",
    "latitude": 45.35768141,
    "longitude": 8.5227352,
    "position_hash": null
  },
  {
    "id": 424,
    "comune": "Casalvolone",
    "istat": "3041",
    "latitude": 45.3994586,
    "longitude": 8.46436466,
    "position_hash": null
  },
  {
    "id": 425,
    "comune": "Castellazzo Novarese",
    "istat": "3042",
    "latitude": 45.5139929,
    "longitude": 8.48870753,
    "position_hash": null
  },
  {
    "id": 426,
    "comune": "Castelletto sopra Ticino",
    "istat": "3043",
    "latitude": 45.71405023,
    "longitude": 8.64237321,
    "position_hash": null
  },
  {
    "id": 427,
    "comune": "Cavaglietto",
    "istat": "3044",
    "latitude": 45.60280053,
    "longitude": 8.50091213,
    "position_hash": null
  },
  {
    "id": 428,
    "comune": "Cavaglio d'Agogna",
    "istat": "3045",
    "latitude": 45.6118122,
    "longitude": 8.48278611,
    "position_hash": null
  },
  {
    "id": 429,
    "comune": "Cavallirio",
    "istat": "3047",
    "latitude": 45.66496084,
    "longitude": 8.3967365,
    "position_hash": null
  },
  {
    "id": 430,
    "comune": "Cerano",
    "istat": "3049",
    "latitude": 45.41067427,
    "longitude": 8.78085515,
    "position_hash": null
  },
  {
    "id": 431,
    "comune": "Colazza",
    "istat": "3051",
    "latitude": 45.79262548,
    "longitude": 8.49908518,
    "position_hash": null
  },
  {
    "id": 432,
    "comune": "Comignago",
    "istat": "3052",
    "latitude": 45.7152394,
    "longitude": 8.56512314,
    "position_hash": null
  },
  {
    "id": 433,
    "comune": "Cressa",
    "istat": "3055",
    "latitude": 45.64799409,
    "longitude": 8.50748369,
    "position_hash": null
  },
  {
    "id": 434,
    "comune": "Cureggio",
    "istat": "3058",
    "latitude": 45.67513019,
    "longitude": 8.46136101,
    "position_hash": null
  },
  {
    "id": 435,
    "comune": "Divignano",
    "istat": "3060",
    "latitude": 45.66227913,
    "longitude": 8.60149532,
    "position_hash": null
  },
  {
    "id": 436,
    "comune": "Dormelletto",
    "istat": "3062",
    "latitude": 45.73016147,
    "longitude": 8.57318421,
    "position_hash": null
  },
  {
    "id": 437,
    "comune": "Fara Novarese",
    "istat": "3065",
    "latitude": 45.55511789,
    "longitude": 8.4591122,
    "position_hash": null
  },
  {
    "id": 438,
    "comune": "Fontaneto d'Agogna",
    "istat": "3066",
    "latitude": 45.63985923,
    "longitude": 8.48458276,
    "position_hash": null
  },
  {
    "id": 439,
    "comune": "Galliate",
    "istat": "3068",
    "latitude": 45.47769535,
    "longitude": 8.69527266,
    "position_hash": null
  },
  {
    "id": 440,
    "comune": "Garbagna Novarese",
    "istat": "3069",
    "latitude": 45.38665075,
    "longitude": 8.6596796,
    "position_hash": null
  },
  {
    "id": 441,
    "comune": "Gargallo",
    "istat": "3070",
    "latitude": 45.72750435,
    "longitude": 8.42921545,
    "position_hash": null
  },
  {
    "id": 442,
    "comune": "Gattico",
    "istat": "3071",
    "latitude": 45.70906459,
    "longitude": 8.52053275,
    "position_hash": null
  },
  {
    "id": 443,
    "comune": "Ghemme",
    "istat": "3073",
    "latitude": 45.59781069,
    "longitude": 8.42009104,
    "position_hash": null
  },
  {
    "id": 444,
    "comune": "Gozzano",
    "istat": "3076",
    "latitude": 45.74755669,
    "longitude": 8.43465086,
    "position_hash": null
  },
  {
    "id": 445,
    "comune": "Granozzo con Monticello",
    "istat": "3077",
    "latitude": 45.36014053,
    "longitude": 8.57413671,
    "position_hash": null
  },
  {
    "id": 446,
    "comune": "Grignasco",
    "istat": "3079",
    "latitude": 45.68190215,
    "longitude": 8.33970898,
    "position_hash": null
  },
  {
    "id": 447,
    "comune": "Invorio",
    "istat": "3082",
    "latitude": 45.75590621,
    "longitude": 8.48673976,
    "position_hash": null
  },
  {
    "id": 448,
    "comune": "Landiona",
    "istat": "3083",
    "latitude": 45.49690699,
    "longitude": 8.42216872,
    "position_hash": null
  },
  {
    "id": 449,
    "comune": "Lesa",
    "istat": "3084",
    "latitude": 45.83011076,
    "longitude": 8.56484439,
    "position_hash": null
  },
  {
    "id": 450,
    "comune": "Maggiora",
    "istat": "3088",
    "latitude": 45.69075412,
    "longitude": 8.42099488,
    "position_hash": null
  },
  {
    "id": 451,
    "comune": "Mandello Vitta",
    "istat": "3090",
    "latitude": 45.49523236,
    "longitude": 8.45918595,
    "position_hash": null
  },
  {
    "id": 452,
    "comune": "Marano Ticino",
    "istat": "3091",
    "latitude": 45.62982409,
    "longitude": 8.63193647,
    "position_hash": null
  },
  {
    "id": 453,
    "comune": "Massino Visconti",
    "istat": "3093",
    "latitude": 45.82190383,
    "longitude": 8.53880817,
    "position_hash": null
  },
  {
    "id": 454,
    "comune": "Meina",
    "istat": "3095",
    "latitude": 45.79003479,
    "longitude": 8.53760183,
    "position_hash": null
  },
  {
    "id": 455,
    "comune": "Mezzomerico",
    "istat": "3097",
    "latitude": 45.62028414,
    "longitude": 8.60462006,
    "position_hash": null
  },
  {
    "id": 456,
    "comune": "Miasino",
    "istat": "3098",
    "latitude": 45.80218966,
    "longitude": 8.43036112,
    "position_hash": null
  },
  {
    "id": 457,
    "comune": "Momo",
    "istat": "3100",
    "latitude": 45.57391222,
    "longitude": 8.55537053,
    "position_hash": null
  },
  {
    "id": 458,
    "comune": "Nebbiuno",
    "istat": "3103",
    "latitude": 45.80607594,
    "longitude": 8.52423877,
    "position_hash": null
  },
  {
    "id": 459,
    "comune": "Nibbiola",
    "istat": "3104",
    "latitude": 45.3717854,
    "longitude": 8.65635253,
    "position_hash": null
  },
  {
    "id": 460,
    "comune": "Novara",
    "istat": "3106",
    "latitude": 45.44588506,
    "longitude": 8.62191588,
    "position_hash": null
  },
  {
    "id": 461,
    "comune": "Oleggio",
    "istat": "3108",
    "latitude": 45.59668789,
    "longitude": 8.63736389,
    "position_hash": null
  },
  {
    "id": 462,
    "comune": "Oleggio Castello",
    "istat": "3109",
    "latitude": 45.74931605,
    "longitude": 8.52971174,
    "position_hash": null
  },
  {
    "id": 463,
    "comune": "Orta San Giulio",
    "istat": "3112",
    "latitude": 45.79916255,
    "longitude": 8.40568474,
    "position_hash": null
  },
  {
    "id": 464,
    "comune": "Paruzzaro",
    "istat": "3114",
    "latitude": 45.74868723,
    "longitude": 8.51345761,
    "position_hash": null
  },
  {
    "id": 465,
    "comune": "Pella",
    "istat": "3115",
    "latitude": 45.79707067,
    "longitude": 8.38311698,
    "position_hash": null
  },
  {
    "id": 466,
    "comune": "Pettenasco",
    "istat": "3116",
    "latitude": 45.81732142,
    "longitude": 8.40857519,
    "position_hash": null
  },
  {
    "id": 467,
    "comune": "Pisano",
    "istat": "3119",
    "latitude": 45.79354856,
    "longitude": 8.51043727,
    "position_hash": null
  },
  {
    "id": 468,
    "comune": "Pogno",
    "istat": "3120",
    "latitude": 45.75667233,
    "longitude": 8.38307485,
    "position_hash": null
  },
  {
    "id": 469,
    "comune": "Pombia",
    "istat": "3121",
    "latitude": 45.64926665,
    "longitude": 8.6323888,
    "position_hash": null
  },
  {
    "id": 470,
    "comune": "Prato Sesia",
    "istat": "3122",
    "latitude": 45.64787501,
    "longitude": 8.37377395,
    "position_hash": null
  },
  {
    "id": 471,
    "comune": "Recetto",
    "istat": "3129",
    "latitude": 45.46080638,
    "longitude": 8.43608827,
    "position_hash": null
  },
  {
    "id": 472,
    "comune": "Romagnano Sesia",
    "istat": "3130",
    "latitude": 45.63335002,
    "longitude": 8.3828762,
    "position_hash": null
  },
  {
    "id": 473,
    "comune": "Romentino",
    "istat": "3131",
    "latitude": 45.46260428,
    "longitude": 8.72085352,
    "position_hash": null
  },
  {
    "id": 474,
    "comune": "San Maurizio d'Opaglio",
    "istat": "3133",
    "latitude": 45.77247196,
    "longitude": 8.3909581,
    "position_hash": null
  },
  {
    "id": 475,
    "comune": "San Nazzaro Sesia",
    "istat": "3134",
    "latitude": 45.43813129,
    "longitude": 8.4235666,
    "position_hash": null
  },
  {
    "id": 476,
    "comune": "San Pietro Mosezzo",
    "istat": "3135",
    "latitude": 45.45561012,
    "longitude": 8.54347212,
    "position_hash": null
  },
  {
    "id": 477,
    "comune": "Sillavengo",
    "istat": "3138",
    "latitude": 45.52045483,
    "longitude": 8.44052712,
    "position_hash": null
  },
  {
    "id": 478,
    "comune": "Sizzano",
    "istat": "3139",
    "latitude": 45.57734631,
    "longitude": 8.4373334,
    "position_hash": null
  },
  {
    "id": 479,
    "comune": "Soriso",
    "istat": "3140",
    "latitude": 45.74226936,
    "longitude": 8.40936492,
    "position_hash": null
  },
  {
    "id": 480,
    "comune": "Sozzago",
    "istat": "3141",
    "latitude": 45.3978178,
    "longitude": 8.72097747,
    "position_hash": null
  },
  {
    "id": 481,
    "comune": "Suno",
    "istat": "3143",
    "latitude": 45.63114506,
    "longitude": 8.54092449,
    "position_hash": null
  },
  {
    "id": 482,
    "comune": "Terdobbiate",
    "istat": "3144",
    "latitude": 45.37635291,
    "longitude": 8.69509702,
    "position_hash": null
  },
  {
    "id": 483,
    "comune": "Tornaco",
    "istat": "3146",
    "latitude": 45.35736427,
    "longitude": 8.71790663,
    "position_hash": null
  },
  {
    "id": 484,
    "comune": "Trecate",
    "istat": "3149",
    "latitude": 45.43190444,
    "longitude": 8.73505551,
    "position_hash": null
  },
  {
    "id": 485,
    "comune": "Vaprio d'Agogna",
    "istat": "3153",
    "latitude": 45.60353491,
    "longitude": 8.55405064,
    "position_hash": null
  },
  {
    "id": 486,
    "comune": "Varallo Pombia",
    "istat": "3154",
    "latitude": 45.66670204,
    "longitude": 8.6330528,
    "position_hash": null
  },
  {
    "id": 487,
    "comune": "Veruno",
    "istat": "3157",
    "latitude": 45.69094068,
    "longitude": 8.53051508,
    "position_hash": null
  },
  {
    "id": 488,
    "comune": "Vespolate",
    "istat": "3158",
    "latitude": 45.34947293,
    "longitude": 8.66903813,
    "position_hash": null
  },
  {
    "id": 489,
    "comune": "Vicolungo",
    "istat": "3159",
    "latitude": 45.47882953,
    "longitude": 8.46131719,
    "position_hash": null
  },
  {
    "id": 490,
    "comune": "Vinzaglio",
    "istat": "3164",
    "latitude": 45.32365543,
    "longitude": 8.51840535,
    "position_hash": null
  },
  {
    "id": 491,
    "comune": "Acceglio",
    "istat": "4001",
    "latitude": 44.47580767,
    "longitude": 6.99122231,
    "position_hash": null
  },
  {
    "id": 492,
    "comune": "Aisone",
    "istat": "4002",
    "latitude": 44.31344859,
    "longitude": 7.22083358,
    "position_hash": null
  },
  {
    "id": 493,
    "comune": "Alba",
    "istat": "4003",
    "latitude": 44.70092208,
    "longitude": 8.03569894,
    "position_hash": null
  },
  {
    "id": 494,
    "comune": "Albaretto della Torre",
    "istat": "4004",
    "latitude": 44.59591514,
    "longitude": 8.06408216,
    "position_hash": null
  },
  {
    "id": 495,
    "comune": "Alto",
    "istat": "4005",
    "latitude": 44.10828374,
    "longitude": 8.00368552,
    "position_hash": null
  },
  {
    "id": 496,
    "comune": "Argentera",
    "istat": "4006",
    "latitude": 44.3795888,
    "longitude": 6.96937784,
    "position_hash": null
  },
  {
    "id": 497,
    "comune": "Arguello",
    "istat": "4007",
    "latitude": 44.5829271,
    "longitude": 8.11067964,
    "position_hash": null
  },
  {
    "id": 498,
    "comune": "Bagnasco",
    "istat": "4008",
    "latitude": 44.30207165,
    "longitude": 8.04258299,
    "position_hash": null
  },
  {
    "id": 499,
    "comune": "Bagnolo Piemonte",
    "istat": "4009",
    "latitude": 44.7599027,
    "longitude": 7.31548217,
    "position_hash": null
  },
  {
    "id": 500,
    "comune": "Baldissero d'Alba",
    "istat": "4010",
    "latitude": 44.758713,
    "longitude": 7.91574918,
    "position_hash": null
  },
  {
    "id": 501,
    "comune": "Barbaresco",
    "istat": "4011",
    "latitude": 44.72554836,
    "longitude": 8.08046453,
    "position_hash": null
  },
  {
    "id": 502,
    "comune": "Barge",
    "istat": "4012",
    "latitude": 44.72522006,
    "longitude": 7.32339364,
    "position_hash": null
  },
  {
    "id": 503,
    "comune": "Barolo",
    "istat": "4013",
    "latitude": 44.60988256,
    "longitude": 7.94180811,
    "position_hash": null
  },
  {
    "id": 504,
    "comune": "Bastia Mondovì",
    "istat": "4014",
    "latitude": 44.44138607,
    "longitude": 7.89332172,
    "position_hash": null
  },
  {
    "id": 505,
    "comune": "Battifollo",
    "istat": "4015",
    "latitude": 44.31917111,
    "longitude": 8.00948124,
    "position_hash": null
  },
  {
    "id": 506,
    "comune": "Beinette",
    "istat": "4016",
    "latitude": 44.36566802,
    "longitude": 7.64570648,
    "position_hash": null
  },
  {
    "id": 507,
    "comune": "Bellino",
    "istat": "4017",
    "latitude": 44.58060554,
    "longitude": 7.01716043,
    "position_hash": null
  },
  {
    "id": 508,
    "comune": "Belvedere Langhe",
    "istat": "4018",
    "latitude": 44.49456526,
    "longitude": 7.97416757,
    "position_hash": null
  },
  {
    "id": 509,
    "comune": "Bene Vagienna",
    "istat": "4019",
    "latitude": 44.54523956,
    "longitude": 7.83282512,
    "position_hash": null
  },
  {
    "id": 510,
    "comune": "Benevello",
    "istat": "4020",
    "latitude": 44.62818908,
    "longitude": 8.10591872,
    "position_hash": null
  },
  {
    "id": 511,
    "comune": "Bergolo",
    "istat": "4021",
    "latitude": 44.54801177,
    "longitude": 8.18352587,
    "position_hash": null
  },
  {
    "id": 512,
    "comune": "Bernezzo",
    "istat": "4022",
    "latitude": 44.38860537,
    "longitude": 7.43531003,
    "position_hash": null
  },
  {
    "id": 513,
    "comune": "Bonvicino",
    "istat": "4023",
    "latitude": 44.50362005,
    "longitude": 8.01592005,
    "position_hash": null
  },
  {
    "id": 514,
    "comune": "Borgomale",
    "istat": "4024",
    "latitude": 44.62044163,
    "longitude": 8.13275549,
    "position_hash": null
  },
  {
    "id": 515,
    "comune": "Borgo San Dalmazzo",
    "istat": "4025",
    "latitude": 44.32875997,
    "longitude": 7.48746357,
    "position_hash": null
  },
  {
    "id": 516,
    "comune": "Bosia",
    "istat": "4026",
    "latitude": 44.60246692,
    "longitude": 8.14620308,
    "position_hash": null
  },
  {
    "id": 517,
    "comune": "Bossolasco",
    "istat": "4027",
    "latitude": 44.52679083,
    "longitude": 8.05750263,
    "position_hash": null
  },
  {
    "id": 518,
    "comune": "Boves",
    "istat": "4028",
    "latitude": 44.32981994,
    "longitude": 7.55199457,
    "position_hash": null
  },
  {
    "id": 519,
    "comune": "Bra",
    "istat": "4029",
    "latitude": 44.69818228,
    "longitude": 7.85474763,
    "position_hash": null
  },
  {
    "id": 520,
    "comune": "Briaglia",
    "istat": "4030",
    "latitude": 44.39511761,
    "longitude": 7.87698925,
    "position_hash": null
  },
  {
    "id": 521,
    "comune": "Briga Alta",
    "istat": "4031",
    "latitude": 44.08321974,
    "longitude": 7.75076032,
    "position_hash": null
  },
  {
    "id": 522,
    "comune": "Brondello",
    "istat": "4032",
    "latitude": 44.60005668,
    "longitude": 7.40513697,
    "position_hash": null
  },
  {
    "id": 523,
    "comune": "Brossasco",
    "istat": "4033",
    "latitude": 44.57029687,
    "longitude": 7.36044207,
    "position_hash": null
  },
  {
    "id": 524,
    "comune": "Busca",
    "istat": "4034",
    "latitude": 44.51369697,
    "longitude": 7.47352127,
    "position_hash": null
  },
  {
    "id": 525,
    "comune": "Camerana",
    "istat": "4035",
    "latitude": 44.42266439,
    "longitude": 8.14079853,
    "position_hash": null
  },
  {
    "id": 526,
    "comune": "Camo",
    "istat": "4036",
    "latitude": 44.69488958,
    "longitude": 8.19352184,
    "position_hash": null
  },
  {
    "id": 527,
    "comune": "Canale",
    "istat": "4037",
    "latitude": 44.79720739,
    "longitude": 7.99140953,
    "position_hash": null
  },
  {
    "id": 528,
    "comune": "Canosio",
    "istat": "4038",
    "latitude": 44.45532677,
    "longitude": 7.08139097,
    "position_hash": null
  },
  {
    "id": 529,
    "comune": "Caprauna",
    "istat": "4039",
    "latitude": 44.11582328,
    "longitude": 7.95494044,
    "position_hash": null
  },
  {
    "id": 530,
    "comune": "Caraglio",
    "istat": "4040",
    "latitude": 44.41771618,
    "longitude": 7.42762073,
    "position_hash": null
  },
  {
    "id": 531,
    "comune": "Caramagna Piemonte",
    "istat": "4041",
    "latitude": 44.78043462,
    "longitude": 7.74117579,
    "position_hash": null
  },
  {
    "id": 532,
    "comune": "Cardè",
    "istat": "4042",
    "latitude": 44.74417866,
    "longitude": 7.47821589,
    "position_hash": null
  },
  {
    "id": 533,
    "comune": "Carrù",
    "istat": "4043",
    "latitude": 44.47859161,
    "longitude": 7.88006416,
    "position_hash": null
  },
  {
    "id": 534,
    "comune": "Cartignano",
    "istat": "4044",
    "latitude": 44.47708439,
    "longitude": 7.28769499,
    "position_hash": null
  },
  {
    "id": 535,
    "comune": "Casalgrasso",
    "istat": "4045",
    "latitude": 44.81950243,
    "longitude": 7.62496057,
    "position_hash": null
  },
  {
    "id": 536,
    "comune": "Castagnito",
    "istat": "4046",
    "latitude": 44.75647805,
    "longitude": 8.03015252,
    "position_hash": null
  },
  {
    "id": 537,
    "comune": "Casteldelfino",
    "istat": "4047",
    "latitude": 44.59097136,
    "longitude": 7.06903166,
    "position_hash": null
  },
  {
    "id": 538,
    "comune": "Castellar",
    "istat": "4048",
    "latitude": 44.62157124,
    "longitude": 7.43636974,
    "position_hash": null
  },
  {
    "id": 539,
    "comune": "Castelletto Stura",
    "istat": "4049",
    "latitude": 44.44422917,
    "longitude": 7.63905085,
    "position_hash": null
  },
  {
    "id": 540,
    "comune": "Castelletto Uzzone",
    "istat": "4050",
    "latitude": 44.49257989,
    "longitude": 8.18598322,
    "position_hash": null
  },
  {
    "id": 541,
    "comune": "Castellinaldo d'Alba",
    "istat": "4051",
    "latitude": 44.77533089,
    "longitude": 8.03153502,
    "position_hash": null
  },
  {
    "id": 542,
    "comune": "Castellino Tanaro",
    "istat": "4052",
    "latitude": 44.42777401,
    "longitude": 7.98188704,
    "position_hash": null
  },
  {
    "id": 543,
    "comune": "Castelmagno",
    "istat": "4053",
    "latitude": 44.40916447,
    "longitude": 7.21232892,
    "position_hash": null
  },
  {
    "id": 544,
    "comune": "Castelnuovo di Ceva",
    "istat": "4054",
    "latitude": 44.35330865,
    "longitude": 8.13019641,
    "position_hash": null
  },
  {
    "id": 545,
    "comune": "Castiglione Falletto",
    "istat": "4055",
    "latitude": 44.62333766,
    "longitude": 7.97903465,
    "position_hash": null
  },
  {
    "id": 546,
    "comune": "Castiglione Tinella",
    "istat": "4056",
    "latitude": 44.72604642,
    "longitude": 8.18943117,
    "position_hash": null
  },
  {
    "id": 547,
    "comune": "Castino",
    "istat": "4057",
    "latitude": 44.61699553,
    "longitude": 8.18121378,
    "position_hash": null
  },
  {
    "id": 548,
    "comune": "Cavallerleone",
    "istat": "4058",
    "latitude": 44.73944316,
    "longitude": 7.66273569,
    "position_hash": null
  },
  {
    "id": 549,
    "comune": "Cavallermaggiore",
    "istat": "4059",
    "latitude": 44.70785741,
    "longitude": 7.68774788,
    "position_hash": null
  },
  {
    "id": 550,
    "comune": "Celle di Macra",
    "istat": "4060",
    "latitude": 44.48257098,
    "longitude": 7.17967333,
    "position_hash": null
  },
  {
    "id": 551,
    "comune": "Centallo",
    "istat": "4061",
    "latitude": 44.50412404,
    "longitude": 7.59014854,
    "position_hash": null
  },
  {
    "id": 552,
    "comune": "Ceresole Alba",
    "istat": "4062",
    "latitude": 44.79952425,
    "longitude": 7.82056601,
    "position_hash": null
  },
  {
    "id": 553,
    "comune": "Cerretto Langhe",
    "istat": "4063",
    "latitude": 44.57433971,
    "longitude": 8.09783957,
    "position_hash": null
  },
  {
    "id": 554,
    "comune": "Cervasca",
    "istat": "4064",
    "latitude": 44.38316033,
    "longitude": 7.46788805,
    "position_hash": null
  },
  {
    "id": 555,
    "comune": "Cervere",
    "istat": "4065",
    "latitude": 44.63475191,
    "longitude": 7.79316738,
    "position_hash": null
  },
  {
    "id": 556,
    "comune": "Ceva",
    "istat": "4066",
    "latitude": 44.38623533,
    "longitude": 8.03521716,
    "position_hash": null
  },
  {
    "id": 557,
    "comune": "Cherasco",
    "istat": "4067",
    "latitude": 44.65222548,
    "longitude": 7.85820345,
    "position_hash": null
  },
  {
    "id": 558,
    "comune": "Chiusa di Pesio",
    "istat": "4068",
    "latitude": 44.32477035,
    "longitude": 7.67788414,
    "position_hash": null
  },
  {
    "id": 559,
    "comune": "Cigliè",
    "istat": "4069",
    "latitude": 44.43506854,
    "longitude": 7.92622597,
    "position_hash": null
  },
  {
    "id": 560,
    "comune": "Cissone",
    "istat": "4070",
    "latitude": 44.56310368,
    "longitude": 8.03050943,
    "position_hash": null
  },
  {
    "id": 561,
    "comune": "Clavesana",
    "istat": "4071",
    "latitude": 44.4821472,
    "longitude": 7.91198215,
    "position_hash": null
  },
  {
    "id": 562,
    "comune": "Corneliano d'Alba",
    "istat": "4072",
    "latitude": 44.73553903,
    "longitude": 7.96129163,
    "position_hash": null
  },
  {
    "id": 563,
    "comune": "Cortemilia",
    "istat": "4073",
    "latitude": 44.5808616,
    "longitude": 8.19186669,
    "position_hash": null
  },
  {
    "id": 564,
    "comune": "Cossano Belbo",
    "istat": "4074",
    "latitude": 44.66906362,
    "longitude": 8.19855921,
    "position_hash": null
  },
  {
    "id": 565,
    "comune": "Costigliole Saluzzo",
    "istat": "4075",
    "latitude": 44.56461241,
    "longitude": 7.48493751,
    "position_hash": null
  },
  {
    "id": 566,
    "comune": "Cravanzana",
    "istat": "4076",
    "latitude": 44.57315552,
    "longitude": 8.12818957,
    "position_hash": null
  },
  {
    "id": 567,
    "comune": "Crissolo",
    "istat": "4077",
    "latitude": 44.69910296,
    "longitude": 7.15718954,
    "position_hash": null
  },
  {
    "id": 568,
    "comune": "Cuneo",
    "istat": "4078",
    "latitude": 44.39329624,
    "longitude": 7.55117163,
    "position_hash": null
  },
  {
    "id": 569,
    "comune": "Demonte",
    "istat": "4079",
    "latitude": 44.31526154,
    "longitude": 7.29751308,
    "position_hash": null
  },
  {
    "id": 570,
    "comune": "Diano d'Alba",
    "istat": "4080",
    "latitude": 44.65139204,
    "longitude": 8.02766887,
    "position_hash": null
  },
  {
    "id": 571,
    "comune": "Dogliani",
    "istat": "4081",
    "latitude": 44.53009052,
    "longitude": 7.94516725,
    "position_hash": null
  },
  {
    "id": 572,
    "comune": "Dronero",
    "istat": "4082",
    "latitude": 44.46697823,
    "longitude": 7.36331795,
    "position_hash": null
  },
  {
    "id": 573,
    "comune": "Elva",
    "istat": "4083",
    "latitude": 44.53976498,
    "longitude": 7.08963389,
    "position_hash": null
  },
  {
    "id": 574,
    "comune": "Entracque",
    "istat": "4084",
    "latitude": 44.24075683,
    "longitude": 7.39780279,
    "position_hash": null
  },
  {
    "id": 575,
    "comune": "Envie",
    "istat": "4085",
    "latitude": 44.68175309,
    "longitude": 7.37219219,
    "position_hash": null
  },
  {
    "id": 576,
    "comune": "Farigliano",
    "istat": "4086",
    "latitude": 44.51169894,
    "longitude": 7.91702082,
    "position_hash": null
  },
  {
    "id": 577,
    "comune": "Faule",
    "istat": "4087",
    "latitude": 44.80542638,
    "longitude": 7.58066365,
    "position_hash": null
  },
  {
    "id": 578,
    "comune": "Feisoglio",
    "istat": "4088",
    "latitude": 44.54335973,
    "longitude": 8.10417587,
    "position_hash": null
  },
  {
    "id": 579,
    "comune": "Fossano",
    "istat": "4089",
    "latitude": 44.549398,
    "longitude": 7.72487008,
    "position_hash": null
  },
  {
    "id": 580,
    "comune": "Frabosa Soprana",
    "istat": "4090",
    "latitude": 44.28747375,
    "longitude": 7.80709202,
    "position_hash": null
  },
  {
    "id": 581,
    "comune": "Frabosa Sottana",
    "istat": "4091",
    "latitude": 44.30202535,
    "longitude": 7.79831038,
    "position_hash": null
  },
  {
    "id": 582,
    "comune": "Frassino",
    "istat": "4092",
    "latitude": 44.571357,
    "longitude": 7.27564416,
    "position_hash": null
  },
  {
    "id": 583,
    "comune": "Gaiola",
    "istat": "4093",
    "latitude": 44.33524752,
    "longitude": 7.40676156,
    "position_hash": null
  },
  {
    "id": 584,
    "comune": "Gambasca",
    "istat": "4094",
    "latitude": 44.62937358,
    "longitude": 7.34741432,
    "position_hash": null
  },
  {
    "id": 585,
    "comune": "Garessio",
    "istat": "4095",
    "latitude": 44.19729282,
    "longitude": 8.02988403,
    "position_hash": null
  },
  {
    "id": 586,
    "comune": "Genola",
    "istat": "4096",
    "latitude": 44.58769184,
    "longitude": 7.6627259,
    "position_hash": null
  },
  {
    "id": 587,
    "comune": "Gorzegno",
    "istat": "4097",
    "latitude": 44.51186,
    "longitude": 8.13511748,
    "position_hash": null
  },
  {
    "id": 588,
    "comune": "Gottasecca",
    "istat": "4098",
    "latitude": 44.46169553,
    "longitude": 8.16725259,
    "position_hash": null
  },
  {
    "id": 589,
    "comune": "Govone",
    "istat": "4099",
    "latitude": 44.80485973,
    "longitude": 8.09995734,
    "position_hash": null
  },
  {
    "id": 590,
    "comune": "Grinzane Cavour",
    "istat": "4100",
    "latitude": 44.6565379,
    "longitude": 7.98221368,
    "position_hash": null
  },
  {
    "id": 591,
    "comune": "Guarene",
    "istat": "4101",
    "latitude": 44.73780446,
    "longitude": 8.03367466,
    "position_hash": null
  },
  {
    "id": 592,
    "comune": "Igliano",
    "istat": "4102",
    "latitude": 44.44353291,
    "longitude": 8.01250347,
    "position_hash": null
  },
  {
    "id": 593,
    "comune": "Isasca",
    "istat": "4103",
    "latitude": 44.58729447,
    "longitude": 7.38154761,
    "position_hash": null
  },
  {
    "id": 594,
    "comune": "Lagnasco",
    "istat": "4104",
    "latitude": 44.62466066,
    "longitude": 7.55533712,
    "position_hash": null
  },
  {
    "id": 595,
    "comune": "La Morra",
    "istat": "4105",
    "latitude": 44.63734577,
    "longitude": 7.93346395,
    "position_hash": null
  },
  {
    "id": 596,
    "comune": "Lequio Berria",
    "istat": "4106",
    "latitude": 44.60460498,
    "longitude": 8.09767172,
    "position_hash": null
  },
  {
    "id": 597,
    "comune": "Lequio Tanaro",
    "istat": "4107",
    "latitude": 44.56023249,
    "longitude": 7.8835988,
    "position_hash": null
  },
  {
    "id": 598,
    "comune": "Lesegno",
    "istat": "4108",
    "latitude": 44.40123357,
    "longitude": 7.96650568,
    "position_hash": null
  },
  {
    "id": 599,
    "comune": "Levice",
    "istat": "4109",
    "latitude": 44.53765937,
    "longitude": 8.15661951,
    "position_hash": null
  },
  {
    "id": 600,
    "comune": "Limone Piemonte",
    "istat": "4110",
    "latitude": 44.20129244,
    "longitude": 7.57607947,
    "position_hash": null
  },
  {
    "id": 601,
    "comune": "Lisio",
    "istat": "4111",
    "latitude": 44.30669736,
    "longitude": 7.97963402,
    "position_hash": null
  },
  {
    "id": 602,
    "comune": "Macra",
    "istat": "4112",
    "latitude": 44.49985871,
    "longitude": 7.17920368,
    "position_hash": null
  },
  {
    "id": 603,
    "comune": "Magliano Alfieri",
    "istat": "4113",
    "latitude": 44.76646823,
    "longitude": 8.06781101,
    "position_hash": null
  },
  {
    "id": 604,
    "comune": "Magliano Alpi",
    "istat": "4114",
    "latitude": 44.45810047,
    "longitude": 7.79955227,
    "position_hash": null
  },
  {
    "id": 605,
    "comune": "Mango",
    "istat": "4115",
    "latitude": 44.68461474,
    "longitude": 8.15033106,
    "position_hash": null
  },
  {
    "id": 606,
    "comune": "Manta",
    "istat": "4116",
    "latitude": 44.61433199,
    "longitude": 7.48626156,
    "position_hash": null
  },
  {
    "id": 607,
    "comune": "Marene",
    "istat": "4117",
    "latitude": 44.66149658,
    "longitude": 7.7291516,
    "position_hash": null
  },
  {
    "id": 608,
    "comune": "Margarita",
    "istat": "4118",
    "latitude": 44.40264638,
    "longitude": 7.68685767,
    "position_hash": null
  },
  {
    "id": 609,
    "comune": "Marmora",
    "istat": "4119",
    "latitude": 44.4574949,
    "longitude": 7.0944983,
    "position_hash": null
  },
  {
    "id": 610,
    "comune": "Marsaglia",
    "istat": "4120",
    "latitude": 44.45218424,
    "longitude": 7.98298599,
    "position_hash": null
  },
  {
    "id": 611,
    "comune": "Martiniana Po",
    "istat": "4121",
    "latitude": 44.62641683,
    "longitude": 7.36631509,
    "position_hash": null
  },
  {
    "id": 612,
    "comune": "Melle",
    "istat": "4122",
    "latitude": 44.56205512,
    "longitude": 7.32058248,
    "position_hash": null
  },
  {
    "id": 613,
    "comune": "Moiola",
    "istat": "4123",
    "latitude": 44.31969065,
    "longitude": 7.38887176,
    "position_hash": null
  },
  {
    "id": 614,
    "comune": "Mombarcaro",
    "istat": "4124",
    "latitude": 44.46776296,
    "longitude": 8.08509313,
    "position_hash": null
  },
  {
    "id": 615,
    "comune": "Mombasiglio",
    "istat": "4125",
    "latitude": 44.36331302,
    "longitude": 7.96999618,
    "position_hash": null
  },
  {
    "id": 616,
    "comune": "Monastero di Vasco",
    "istat": "4126",
    "latitude": 44.34017655,
    "longitude": 7.82276111,
    "position_hash": null
  },
  {
    "id": 617,
    "comune": "Monasterolo Casotto",
    "istat": "4127",
    "latitude": 44.33083516,
    "longitude": 7.94113913,
    "position_hash": null
  },
  {
    "id": 618,
    "comune": "Monasterolo di Savigliano",
    "istat": "4128",
    "latitude": 44.68633537,
    "longitude": 7.62076965,
    "position_hash": null
  },
  {
    "id": 619,
    "comune": "Monchiero",
    "istat": "4129",
    "latitude": 44.57304646,
    "longitude": 7.91814013,
    "position_hash": null
  },
  {
    "id": 620,
    "comune": "Mondovì",
    "istat": "4130",
    "latitude": 44.38717713,
    "longitude": 7.81980578,
    "position_hash": null
  },
  {
    "id": 621,
    "comune": "Monesiglio",
    "istat": "4131",
    "latitude": 44.46489547,
    "longitude": 8.11637954,
    "position_hash": null
  },
  {
    "id": 622,
    "comune": "Monforte d'Alba",
    "istat": "4132",
    "latitude": 44.58233541,
    "longitude": 7.96840862,
    "position_hash": null
  },
  {
    "id": 623,
    "comune": "Montà",
    "istat": "4133",
    "latitude": 44.81309155,
    "longitude": 7.96001468,
    "position_hash": null
  },
  {
    "id": 624,
    "comune": "Montaldo di Mondovì",
    "istat": "4134",
    "latitude": 44.31946922,
    "longitude": 7.8658402,
    "position_hash": null
  },
  {
    "id": 625,
    "comune": "Montaldo Roero",
    "istat": "4135",
    "latitude": 44.76856722,
    "longitude": 7.92446567,
    "position_hash": null
  },
  {
    "id": 626,
    "comune": "Montanera",
    "istat": "4136",
    "latitude": 44.46197795,
    "longitude": 7.66557341,
    "position_hash": null
  },
  {
    "id": 627,
    "comune": "Montelupo Albese",
    "istat": "4137",
    "latitude": 44.6230682,
    "longitude": 8.04638473,
    "position_hash": null
  },
  {
    "id": 628,
    "comune": "Montemale di Cuneo",
    "istat": "4138",
    "latitude": 44.43769447,
    "longitude": 7.37281405,
    "position_hash": null
  },
  {
    "id": 629,
    "comune": "Monterosso Grana",
    "istat": "4139",
    "latitude": 44.4088882,
    "longitude": 7.32391931,
    "position_hash": null
  },
  {
    "id": 630,
    "comune": "Monteu Roero",
    "istat": "4140",
    "latitude": 44.78023621,
    "longitude": 7.93086916,
    "position_hash": null
  },
  {
    "id": 631,
    "comune": "Montezemolo",
    "istat": "4141",
    "latitude": 44.37823953,
    "longitude": 8.14146684,
    "position_hash": null
  },
  {
    "id": 632,
    "comune": "Monticello d'Alba",
    "istat": "4142",
    "latitude": 44.71829049,
    "longitude": 7.94100869,
    "position_hash": null
  },
  {
    "id": 633,
    "comune": "Moretta",
    "istat": "4143",
    "latitude": 44.76390518,
    "longitude": 7.53692411,
    "position_hash": null
  },
  {
    "id": 634,
    "comune": "Morozzo",
    "istat": "4144",
    "latitude": 44.42304028,
    "longitude": 7.71044647,
    "position_hash": null
  },
  {
    "id": 635,
    "comune": "Murazzano",
    "istat": "4145",
    "latitude": 44.47375439,
    "longitude": 8.01884708,
    "position_hash": null
  },
  {
    "id": 636,
    "comune": "Murello",
    "istat": "4146",
    "latitude": 44.75295967,
    "longitude": 7.60094237,
    "position_hash": null
  },
  {
    "id": 637,
    "comune": "Narzole",
    "istat": "4147",
    "latitude": 44.59415651,
    "longitude": 7.87051966,
    "position_hash": null
  },